UNITID,INSTNM,CITY,STABBR,ZIP,REGION,LATITUDE,LONGITUDE,ADM_RATE,SAT_AVG,ACTCMMID,MD_EARN_WNE_P10,COSTT4_A,UGDS
100654,Alabama A & M University,Normal,AL,35762,5,34.783367999999996,-86.568502,0.8738,849.0,18.0,31000.0,22667.0,4616.0
100663,University of Alabama at Birmingham,Birmingham,AL,35294-0110,5,33.505697,-86.799345,0.5814,1125.0,25.0,41200.0,22684.0,12047.0
100690,Amridge University,Montgomery,AL,36117-3553,5,32.362609,-86.17401,,,,39600.0,13380.0,293.0
100706,University of Alabama in Huntsville,Huntsville,AL,35899,5,34.724557,-86.640449,0.7628,1257.0,28.0,46700.0,22059.0,6346.0
100724,Alabama State University,Montgomery,AL,36104-0271,5,32.364317,-86.295677,0.45899999999999996,825.0,17.0,27700.0,19242.0,4704.0
100751,The University of Alabama,Tuscaloosa,AL,35487-0166,5,33.211875,-87.545978,0.5259,1202.0,27.0,44500.0,28422.0,31663.0
100760,Central Alabama Community College,Alexander City,AL,35010,5,32.92478,-85.945266,,,,27700.0,13868.0,1492.0
100812,Athens State University,Athens,AL,35611,5,34.806793,-86.964698,,,,38700.0,,2888.0
100830,Auburn University at Montgomery,Montgomery,AL,36117-3596,5,32.36736,-86.177544,0.7659,1009.0,22.0,33300.0,19255.0,4171.0
100858,Auburn University,Auburn,AL,36849,5,32.599378,-85.488258,0.8054,1217.0,27.0,48800.0,29794.0,22095.0
100937,Birmingham Southern College,Birmingham,AL,35254,5,33.513774,-86.85055200000001,0.4839,1150.0,26.0,46700.0,48510.0,1289.0
101028,Chattahoochee Valley Community College,Phenix City,AL,36869,5,32.42391,-85.031485,,,,28900.0,6980.0,1424.0
101073,Concordia College Alabama,Selma,AL,36701,5,32.425647,-87.019145,0.2363,,,20600.0,27520.0,340.0
101116,South University-Montgomery,Montgomery,AL,36116,5,32.342684000000006,-86.216488,,,,33400.0,26892.0,394.0
101143,Enterprise State Community College,Enterprise,AL,36330-1300,5,31.297496000000002,-85.836956,,,,31800.0,8980.0,1357.0
101161,Coastal Alabama Community College,Bay Minette,AL,36507-2698,5,30.851343,-87.778193,,,,29100.0,12260.0,4189.0
101189,Faulkner University,Montgomery,AL,36109-3390,5,32.384181,-86.21641,0.4538,972.0,21.0,35400.0,30557.0,2297.0
101286,George C Wallace Community College-Dothan,Dothan,AL,36303-9234,5,31.315274,-85.465836,,,,24700.0,9322.0,3904.0
101295,George C Wallace State Community College-Hanceville,Hanceville,AL,35077-2000,5,34.072439,-86.781935,,,,32200.0,10945.0,4857.0
101301,George C Wallace State Community College-Selma,Selma,AL,36703-2808,5,32.445917,-87.01329399999999,,,,23300.0,13819.0,1397.0
101435,Huntingdon College,Montgomery,AL,36106-2148,5,32.351034000000006,-86.284366,0.5676,1001.0,22.0,39900.0,34207.0,1140.0
101453,Heritage Christian University,Florence,AL,35630-9977,5,34.856153000000006,-87.663051,0.3333,,,,19353.0,50.0
101480,Jacksonville State University,Jacksonville,AL,36265,5,33.822938,-85.765321,0.5308,1062.0,23.0,35800.0,20750.0,6714.0
101499,Jefferson Davis Community College,Brewton,AL,36426,5,31.101253999999997,-87.08534,,,,26200.0,12093.0,955.0
101505,Jefferson State Community College,Birmingham,AL,35215-3098,5,33.652535,-86.707233,,,,30600.0,13710.0,7256.0
101514,John C Calhoun State Community College,Tanner,AL,35671,5,34.645844,-86.949674,,,,28000.0,9765.0,8414.0
101541,Judson College,Marion,AL,36756,5,32.629253000000006,-87.315206,0.5755,1013.0,22.0,26100.0,30562.0,327.0
101587,University of West Alabama,Livingston,AL,35470,5,32.588132,-88.186329,0.531,969.0,21.0,37400.0,18533.0,1974.0
101602,Lurleen B Wallace Community College,Andalusia,AL,36420-1418,5,31.322946999999996,-86.452262,,,,26500.0,13558.0,1419.0
101648,Marion Military Institute,Marion,AL,36756-3207,5,32.623734000000006,-87.322041,0.6431,1066.0,23.0,42700.0,17228.0,422.0
101675,Miles College,Fairfield,AL,35064-2621,5,33.482442,-86.908751,,,,26500.0,22356.0,1820.0
101693,University of Mobile,Mobile,AL,36613-2842,5,30.793246999999997,-88.128934,0.6193,1029.0,22.0,35200.0,34482.0,1367.0
101709,University of Montevallo,Montevallo,AL,35115-6000,5,33.10625,-86.865099,0.6542,1069.0,23.0,34200.0,24599.0,2399.0
101879,University of North Alabama,Florence,AL,35632-0001,5,34.806738,-87.681361,0.5574,1028.0,22.0,37800.0,16601.0,5846.0
101897,Northeast Alabama Community College,Rainsville,AL,35986,5,34.545471,-85.911664,,,,27900.0,8290.0,2007.0
101912,Oakwood University,Huntsville,AL,35896,5,34.756344,-86.65270500000001,0.4837,886.0,19.0,29700.0,35585.0,1719.0
101949,Alabama Southern Community College,Monroeville,AL,36460,5,31.488925,-87.326352,,,,25500.0,10781.0,1085.0
101958,Prince Institute-Southeast,Elmhurst,IL,60126,3,32.383106,-86.162237,,,,,,10.0
102049,Samford University,Birmingham,AL,35229-2240,5,33.464128,-86.791799,0.9138,1170.0,26.0,49900.0,43666.0,3324.0
102058,Selma University,Selma,AL,36701,5,32.420387,-87.032392,,,,,9641.0,165.0
102067,Shelton State Community College,Tuscaloosa,AL,35405-8522,5,33.120531,-87.56148,,,,27100.0,11561.0,4436.0
102076,Snead State Community College,Boaz,AL,35957-0734,5,34.201495,-86.16989699999999,,,,27800.0,11226.0,1987.0
102094,University of South Alabama,Mobile,AL,36688-0002,5,30.696033,-88.17871099999999,0.805,1011.0,22.0,37800.0,19511.0,11483.0
102234,Spring Hill College,Mobile,AL,36608-1791,5,30.694751,-88.138199,0.4353,1121.0,25.0,45100.0,47815.0,1379.0
102261,Southeastern Bible College,Birmingham,AL,35244-2083,5,33.378935,-86.749045,1.0,970.0,21.0,34400.0,20923.0,143.0
102270,Stillman College,Tuscaloosa,AL,35401,5,33.200006,-87.585278,0.4192,765.0,16.0,28200.0,20737.0,628.0
102298,Talladega College,Talladega,AL,35160,5,33.433471999999995,-86.11270400000001,,,,21900.0,21601.0,669.0
102368,Troy University,Troy,AL,36082-0001,5,31.800672,-85.957094,0.9125,992.0,21.0,37000.0,18404.0,13745.0
102377,Tuskegee University,Tuskegee,AL,36088-1920,5,32.4309,-85.708492,0.4999,1006.0,22.0,35500.0,36457.0,2393.0
102395,United States Sports Academy,Daphne,AL,36526-7055,5,30.639328999999996,-87.91163,,,,,,72.0
102429,Bevill State Community College,Jasper,AL,35501,5,33.836929,-87.266406,,,,28100.0,12569.0,3211.0
102553,University of Alaska Anchorage,Anchorage,AK,99508,8,61.190163,-149.82619,0.8285,,,45400.0,18379.0,11833.0
102614,University of Alaska Fairbanks,Fairbanks,AK,99775-7500,8,64.85755999999999,-147.823146,0.7347,1060.0,23.0,38700.0,16694.0,5152.0
102669,Alaska Pacific University,Anchorage,AK,99508,8,61.190968000000005,-149.804168,0.5506,,,40200.0,30669.0,262.0
103945,CollegeAmerica-Flagstaff,Flagstaff,AZ,86001,6,35.194495,-111.657673,,,,23900.0,31236.0,101.0
104151,Arizona State University-Tempe,Tempe,AZ,85287,6,33.417721,-111.93438300000001,0.825,1147.0,25.0,47700.0,23931.0,42224.0
104179,University of Arizona,Tucson,AZ,85721-0066,6,32.232671999999994,-110.95081499999999,0.7862,,,47300.0,24633.0,33402.0
104188,Southwest University of Visual Arts-Tucson,Tucson,AZ,85716,6,32.252879,-110.92726499999999,,,,30200.0,32254.0,132.0
104346,Central Arizona College,Coolidge,AZ,85128-9030,6,32.957091999999996,-111.652501,,,,26500.0,10290.0,4865.0
104364,Brown Mackie College-Tucson,Tucson,AZ,85712,6,32.236736,-110.895086,,,,29400.0,,171.0
104425,Cochise County Community College District,Sierra Vista,AZ,85635-2317,6,31.564596999999996,-110.246946,,,,28500.0,10165.0,3764.0
104586,Embry-Riddle Aeronautical University-Prescott,Prescott,AZ,86301-3720,6,34.616766,-112.44974099999999,0.7634,,,66200.0,48992.0,2363.0
104717,Grand Canyon University,Phoenix,AZ,85017,6,33.513231,-112.129929,0.5694,,,52700.0,31156.0,45495.0
105206,Mohave Community College,Kingman,AZ,86409-1238,6,35.270996000000004,-114.02983799999998,,,,27500.0,11449.0,2770.0
105297,Dine College,Tsaile,AZ,86556,6,36.293328,-109.21683999999999,,,,21000.0,13499.0,1276.0
105330,Northern Arizona University,Flagstaff,AZ,86011-4092,6,35.188449,-111.653724,0.7804,,,40100.0,25174.0,26399.0
105367,Ottawa University-Phoenix,Phoenix,AZ,85021,6,33.572173,-112.113001,,,,41500.0,,293.0
105589,Prescott College,Prescott,AZ,86301,6,34.5452,-112.477185,0.6847,1089.0,25.0,33200.0,39865.0,349.0
105792,South Mountain Community College,Phoenix,AZ,85042,6,33.382406,-112.03263500000001,,,,30200.0,11801.0,3244.0
105899,Arizona Christian University,Phoenix,AZ,85032-7097,6,33.595117,-112.026211,0.5916,963.0,20.0,32200.0,36297.0,684.0
106041,Universal Technical Institute of Arizona Inc,Avondale,AZ,85323,6,33.453005,-112.288123,,,,45200.0,,1896.0
106102,Western International University,Tempe,AZ,85282,6,33.403294,-111.964527,,,,35000.0,17736.0,1133.0
106245,University of Arkansas at Little Rock,Little Rock,AR,72204,5,34.723254,-92.33977800000001,0.8983,1029.0,22.0,34900.0,21392.0,7023.0
106263,University of Arkansas for Medical Sciences,Little Rock,AR,72205-7199,5,34.749047999999995,-92.32004599999999,,,,61000.0,,656.0
106306,Arkansas Baptist College,Little Rock,AR,72202-6068,5,34.734751,-92.290555,,,,21800.0,21857.0,878.0
106342,Lyon College,Batesville,AR,72501,5,35.777619,-91.625354,0.7417,1099.0,24.0,38600.0,35454.0,683.0
106397,University of Arkansas,Fayetteville,AR,72701,5,36.070009000000006,-94.17698100000001,0.632,1170.0,26.0,44900.0,21817.0,22254.0
106412,University of Arkansas at Pine Bluff,Pine Bluff,AR,71601,5,34.244031,-92.018683,0.4193,894.0,19.0,27200.0,16319.0,2711.0
106458,Arkansas State University-Main Campus,Jonesboro,AR,72401,5,35.842388,-90.679988,0.7040000000000001,1090.0,24.0,32200.0,20872.0,9128.0
106467,Arkansas Tech University,Russellville,AR,72801-2222,5,35.293237,-93.13561999999999,0.6391,,,34100.0,17731.0,8463.0
106704,University of Central Arkansas,Conway,AR,72035-0001,5,35.077945,-92.457672,0.8978,1082.0,24.0,38300.0,20052.0,9082.0
106713,Central Baptist College,Conway,AR,72034,5,35.083838,-92.445021,0.6195,1018.0,22.0,35300.0,23491.0,731.0
106810,Crowley's Ridge College,Paragould,AR,72450,5,36.064845,-90.584395,,,,26000.0,19791.0,197.0
106980,National Park College,Hot Springs,AR,71913,5,34.512687,-93.119248,,,,25100.0,12268.0,2176.0
107044,Harding University,Searcy,AR,72149-5615,5,35.247337,-91.72604100000001,0.7018,1135.0,25.0,40900.0,27627.0,4377.0
107071,Henderson State University,Arkadelphia,AR,71999-0001,5,34.128155,-93.059703,0.6611,1030.0,22.0,35700.0,20112.0,3048.0
107080,Hendrix College,Conway,AR,72032-3080,5,35.101565,-92.443256,0.7709999999999999,1287.0,29.0,39700.0,56050.0,1315.0
107141,John Brown University,Siloam Springs,AR,72761,5,36.189811999999996,-94.560283,0.7711,1173.0,26.0,45800.0,36782.0,1661.0
107512,Ouachita Baptist University,Arkadelphia,AR,71998-0001,5,34.126093,-93.052471,0.6688,1116.0,25.0,41200.0,34740.0,1477.0
107558,University of the Ozarks,Clarksville,AR,72830,5,35.476278,-93.467221,0.8682,999.0,22.0,33900.0,36207.0,672.0
107585,University of Arkansas Community College-Morrilton,Morrilton,AR,72110,5,35.172136,-92.728507,0.7719,950.0,20.0,27500.0,10795.0,1931.0
107600,Philander Smith College,Little Rock,AR,72202-3799,5,34.737131,-92.283015,,,,24400.0,25442.0,764.0
107840,Shorter College,N Little Rock,AR,72114,5,34.75933,-92.26133100000001,,,,,20528.0,446.0
107877,Williams Baptist College,Walnut Ridge,AR,72476,5,36.125676,-90.94027700000001,0.6051,970.0,21.0,33100.0,26649.0,434.0
107983,Southern Arkansas University Main Campus,Magnolia,AR,71753,5,33.291618,-93.235922,0.6913,989.0,21.0,35700.0,20696.0,3012.0
108092,University of Arkansas-Fort Smith,Fort Smith,AR,72913-3649,5,35.384184000000005,-94.373729,,,,31000.0,15693.0,5511.0
108232,Academy of Art University,San Francisco,CA,94105,8,37.787748,-122.40068600000001,,,,38600.0,38000.0,8182.0
108807,Allan Hancock College,Santa Maria,CA,93454-6399,8,34.943715999999995,-120.421144,,,,30400.0,9932.0,9445.0
108852,American Academy of Dramatic Arts-Los Angeles,Los Angeles,CA,90028,8,34.095378000000004,-118.343701,0.7701,,,32700.0,51581.0,303.0
109350,Antelope Valley College,Lancaster,CA,93536-5426,8,34.676207,-118.18616599999999,,,,27100.0,9973.0,11977.0
109651,Art Center College of Design,Pasadena,CA,91103,8,34.169031,-118.185102,0.6925,,,53600.0,61420.0,1897.0
109785,Azusa Pacific University,Azusa,CA,91702-7000,8,34.130047,-117.888375,0.6146,1035.0,23.0,51100.0,48284.0,5770.0
109907,Barstow Community College,Barstow,CA,92311,8,34.871451,-117.02523000000001,,,,29900.0,14789.0,2964.0
110060,Bethesda University,Anaheim,CA,92801,8,33.842295,-117.941323,,,,,16877.0,293.0
110097,Biola University,La Mirada,CA,90639-0001,8,33.906203000000005,-118.014374,0.6485,1093.0,24.0,44500.0,48857.0,4083.0
110219,Bryan University,Tempe,AZ,85281,6,33.437779,-111.944197,,,,31900.0,23538.0,1489.0
110246,Butte College,Oroville,CA,95965-8399,8,39.649782,-121.64483100000001,,,,31300.0,11595.0,10410.0
110316,California Institute of Integral Studies,San Francisco,CA,94103,8,37.774924,-122.416102,,,,,,70.0
110334,Cabrillo College,Aptos,CA,95003,8,36.989447999999996,-121.924797,,,,33300.0,14686.0,10668.0
110361,California Baptist University,Riverside,CA,92504-3297,8,33.929321,-117.425619,0.6399,988.0,22.0,42600.0,41826.0,6904.0
110370,California College of the Arts,San Francisco,CA,94107-2247,8,37.767485,-122.399451,0.6485,,,37200.0,59502.0,1516.0
110404,California Institute of Technology,Pasadena,CA,91125,8,34.137349,-118.125878,0.0807,1555.0,35.0,85900.0,63471.0,979.0
110413,California Lutheran University,Thousand Oaks,CA,91360-2787,8,34.224565999999996,-118.878924,0.6419,1107.0,25.0,54200.0,54373.0,2887.0
110422,California Polytechnic State University-San Luis Obispo,San Luis Obispo,CA,93407,8,35.299513,-120.657311,0.2949,1270.0,29.0,66900.0,25300.0,20367.0
110486,California State University-Bakersfield,Bakersfield,CA,93311-1099,8,35.350004999999996,-119.10471100000001,0.6782,,,47800.0,16481.0,8144.0
110495,California State University-Stanislaus,Turlock,CA,95382-0299,8,37.52577,-120.852511,0.7434,,,45400.0,16588.0,8610.0
110510,California State University-San Bernardino,San Bernardino,CA,92407-2397,8,34.182621999999995,-117.323801,0.5814,877.0,18.0,44500.0,15988.0,18317.0
110529,California State Polytechnic University-Pomona,Pomona,CA,91768,8,34.054272999999995,-117.819019,0.5916,1045.0,24.0,54000.0,21223.0,23611.0
110538,California State University-Chico,Chico,CA,95929-0150,8,39.729712,-121.84485900000001,0.6525,997.0,22.0,48100.0,22417.0,16305.0
110547,California State University-Dominguez Hills,Carson,CA,90747-0005,8,33.864765999999996,-118.255917,0.4791,,,44700.0,13027.0,12666.0
110556,California State University-Fresno,Fresno,CA,93740,8,36.814477000000004,-119.748258,0.5354,907.0,19.0,44700.0,16078.0,21150.0
110565,California State University-Fullerton,Fullerton,CA,92831-3599,8,33.881506,-117.885446,0.4823,1017.0,22.0,47200.0,17049.0,34416.0
110574,California State University-East Bay,Hayward,CA,94542,8,37.657070000000004,-122.058073,0.6975,,,51700.0,20303.0,13361.0
110583,California State University-Long Beach,Long Beach,CA,90840-0115,8,33.782818,-118.11204,0.3189,1052.0,23.0,48100.0,18192.0,32170.0
110592,California State University-Los Angeles,Los Angeles,CA,90032-8506,8,34.066927,-118.16896499999999,0.637,870.0,18.0,46100.0,13385.0,24046.0
110608,California State University-Northridge,Northridge,CA,91330,8,34.240126000000004,-118.529319,0.4824,918.0,20.0,45400.0,16591.0,35605.0
110617,California State University-Sacramento,Sacramento,CA,95819-2694,8,38.559415,-121.423549,0.7194,937.0,20.0,48900.0,18535.0,27884.0
110635,University of California-Berkeley,Berkeley,CA,94720,8,37.871918,-122.26046299999999,0.1693,1422.0,33.0,64700.0,34924.0,29309.0
110644,University of California-Davis,Davis,CA,95616-8678,8,38.539667,-121.749567,0.4228,1218.0,28.0,58200.0,33904.0,29358.0
110653,University of California-Irvine,Irvine,CA,92697,8,33.648434,-117.841248,0.4065,1206.0,27.0,58400.0,31198.0,27317.0
110662,University of California-Los Angeles,Los Angeles,CA,90095-1405,8,34.068892,-118.443901,0.1799,1334.0,31.0,60700.0,33078.0,30859.0
110671,University of California-Riverside,Riverside,CA,92521,8,33.97246,-117.32741000000001,0.6634,1078.0,24.0,49700.0,31494.0,19788.0
110680,University of California-San Diego,La Jolla,CA,92093,8,32.876598,-117.237793,0.3566,1324.0,30.0,59900.0,31043.0,28121.0
110705,University of California-Santa Barbara,Santa Barbara,CA,93106,8,34.416297,-119.846426,0.3577,1281.0,30.0,55300.0,34998.0,21570.0
110714,University of California-Santa Cruz,Santa Cruz,CA,95064-1011,8,36.995584,-122.058801,0.5785,1201.0,28.0,46900.0,34608.0,16962.0
110778,Sofia University,Palo Alto,CA,94303,8,37.430325,-122.10866000000001,,,,,,9.0
110918,California Christian College,Fresno,CA,93727,8,36.749365999999995,-119.711123,1.0,,,,13869.0,18.0
111009,Le Cordon Bleu College of Culinary Arts-San Francisco,San Francisco,CA,94103,8,37.765544,-122.40335,,,,37900.0,,162.0
111081,California Institute of the Arts,Valencia,CA,91355-2397,8,34.39327,-118.566837,0.23600000000000002,,,37900.0,64686.0,951.0
111188,California State University Maritime Academy,Vallejo,CA,94590,8,38.069061,-122.231551,0.682,,,82900.0,22204.0,1107.0
111434,Canada College,Redwood City,CA,94061-1099,8,37.44877,-122.265398,,,,31500.0,9432.0,5212.0
111461,College of the Canyons,Santa Clarita,CA,91355-1899,8,34.403121,-118.569524,,,,39400.0,10984.0,17933.0
111638,Casa Loma College-Van Nuys,Van Nuys,CA,91405,8,34.192828999999996,-118.45778100000001,0.6031,,,49600.0,,226.0
111887,Cerritos College,Norwalk,CA,90650-6298,8,33.88584,-118.09726299999998,,,,31900.0,15112.0,19568.0
111896,Cerro Coso Community College,Ridgecrest,CA,93555-9571,8,35.567525,-117.66767,,,,28000.0,11313.0,4214.0
111920,Chabot College,Hayward,CA,94545,8,37.642513,-122.10696899999999,,,,34600.0,11583.0,12598.0
111939,Chaffey College,Rancho Cucamonga,CA,91737-3002,8,34.147663,-117.57393200000001,,,,31500.0,15215.0,19341.0
111948,Chapman University,Orange,CA,92866,8,33.793678,-117.851481,0.5403,1225.0,28.0,54500.0,64501.0,6338.0
111966,Charles R Drew University of Medicine and Science,Los Angeles,CA,90059,8,33.925658,-118.242791,0.25,,,81900.0,,88.0
112075,Concordia University-Irvine,Irvine,CA,92612-3203,8,33.653665000000004,-117.81230500000001,0.6504,1048.0,23.0,46400.0,45687.0,1895.0
112084,San Diego Christian College,Santee,CA,92071,8,32.842403999999995,-116.97811200000001,0.5329999999999999,938.0,19.0,36700.0,43473.0,690.0
112172,Citrus College,Glendora,CA,91741-1899,8,34.135487,-117.88526599999999,,,,30900.0,9281.0,11407.0
112260,Claremont McKenna College,Claremont,CA,91711-6400,8,34.102154,-117.71118799999999,0.0944,1413.0,32.0,72900.0,66325.0,1344.0
112385,Coastline Community College,Fountain Valley,CA,92708-2597,8,33.715634,-117.929143,,,,35100.0,22519.0,9064.0
112394,Cogswell College,San Jose,CA,95134,8,37.414049,-121.94086999999999,0.8256,,,49800.0,27446.0,649.0
112446,Coleman University,San Diego,CA,92123-1506,8,32.821962,-117.13649299999999,,,,46600.0,33695.0,335.0
112561,Columbia College,Sonora,CA,95370,8,38.030361,-120.387603,,,,27300.0,12282.0,2286.0
112570,Columbia College Hollywood,Tarzana,CA,91356-1411,8,34.17972,-118.538793,0.5419,,,31400.0,35282.0,367.0
112686,El Camino College-Compton Center,Compton,CA,90221-5393,8,33.876665,-118.20918600000002,,,,31800.0,15261.0,6214.0
112826,Contra Costa College,San Pablo,CA,94806-3195,8,37.969381,-122.337377,,,,33200.0,13070.0,5094.0
113096,Cosumnes River College,Sacramento,CA,95823-5799,8,38.45295,-121.42310800000001,,,,29700.0,14679.0,13001.0
113111,Crafton Hills College,Yucaipa,CA,92339-1799,8,34.039178,-117.101173,,,,33000.0,18790.0,5058.0
113193,Cuesta College,San Luis Obispo,CA,93403-8106,8,35.331276,-120.74223500000001,,,,35600.0,15316.0,7755.0
113218,Cuyamaca College,El Cajon,CA,92019,8,32.744954,-116.94350700000001,,,,29000.0,11194.0,8049.0
113236,Cypress College,Cypress,CA,90630-5897,8,33.827625,-118.02388899999998,,,,35600.0,10825.0,14882.0
113333,De Anza College,Cupertino,CA,95014,8,37.319176,-122.04536499999999,,,,41700.0,11144.0,19275.0
113573,College of the Desert,Palm Desert,CA,92260,8,33.732484,-116.38761000000001,,,,30600.0,14656.0,9603.0
113582,Design Institute of San Diego,San Diego,CA,92121,8,32.880926,-117.167374,,,,36800.0,29002.0,143.0
113634,Diablo Valley College,Pleasant Hill,CA,94523,8,37.968035,-122.06986100000002,,,,37600.0,11519.0,17721.0
113698,Dominican University of California,San Rafael,CA,94901-2298,8,37.980014000000004,-122.51465400000001,0.7775,1039.0,23.0,55600.0,60045.0,1374.0
113980,El Camino Community College District,Torrance,CA,90506,8,33.885228999999995,-118.32991299999999,,,,31800.0,15461.0,21643.0
114123,Empire College,Santa Rosa,CA,95403-2126,8,38.468052,-122.72933700000002,,,,33300.0,,361.0
114266,Evergreen Valley College,San Jose,CA,95135-1598,8,37.30167,-121.76561000000001,,,,36600.0,16732.0,7464.0
114354,FIDM-Fashion Institute of Design & Merchandising-Los Angeles,Los Angeles,CA,90015-1421,8,34.044209,-118.25993000000001,0.4145,,,37200.0,46291.0,2624.0
114390,FIDM-Fashion Institute of Design & Merchandising-San Francisco,San Francisco,CA,94108-5805,8,37.786324,-122.406503,0.3632,,,37200.0,43881.0,332.0
114415,FIDM-Fashion Institute of Design & Merchandising-Orange County,Irvine,CA,92614-5610,8,33.691963,-117.852254,0.5399,,,37200.0,41168.0,103.0
114433,Feather River Community College District,Quincy,CA,95971-9124,8,39.952395,-120.970877,,,,29100.0,15907.0,1413.0
114716,Foothill College,Los Altos Hills,CA,94022,8,37.361655,-122.12796399999999,,,,46500.0,9612.0,13966.0
114789,Fresno City College,Fresno,CA,93741,8,36.768164,-119.79609599999999,,,,28000.0,9370.0,19510.0
114813,Fresno Pacific University,Fresno,CA,93702-4709,8,36.726831,-119.735199,0.6848,968.0,21.0,43900.0,37451.0,2421.0
114859,Fullerton College,Fullerton,CA,92832-2095,8,33.875514,-117.918255,,,,33400.0,11866.0,22033.0
114938,Gavilan College,Gilroy,CA,95020,8,36.973273999999996,-121.568174,,,,30400.0,11111.0,4882.0
115001,Glendale Community College,Glendale,CA,91208-2894,8,34.166422,-118.228251,,,,33200.0,9181.0,13770.0
115083,Golden Gate University-San Francisco,San Francisco,CA,94105-2968,8,37.789208,-122.398785,,,,71100.0,,444.0
115296,Grossmont College,El Cajon,CA,92020-1799,8,32.816077,-117.00729199999999,,,,34000.0,7956.0,16630.0
115393,Hartnell College,Salinas,CA,93901,8,36.675090999999995,-121.666054,,,,32100.0,15859.0,11473.0
115409,Harvey Mudd College,Claremont,CA,91711,8,34.106515,-117.70983700000001,0.1287,1496.0,34.0,88800.0,69355.0,829.0
115728,Holy Names University,Oakland,CA,94619-1699,8,37.802276,-122.187804,0.4846,888.0,18.0,50800.0,50806.0,515.0
115755,Humboldt State University,Arcata,CA,95521-8299,8,40.877481,-124.07829299999999,0.7709,983.0,21.0,36600.0,23139.0,7956.0
115773,Humphreys University-Stockton and Modesto Campuses,Stockton,CA,95207-3896,8,38.011051,-121.316401,,,,28800.0,23493.0,392.0
115861,Imperial Valley College,Imperial,CA,92251-0158,8,32.827563,-115.50390300000001,,,,25400.0,11077.0,6873.0
116226,Interior Designers Institute,Newport Beach,CA,92660,8,33.641393,-117.86572199999999,,,,37800.0,28824.0,225.0
116712,John F. Kennedy University,Pleasant Hill,CA,94523-4817,8,37.956616,-122.05476100000001,,,,58000.0,,136.0
116846,American Jewish University,Los Angeles,CA,90077-1519,8,34.128099,-118.471764,0.5979,,,,36286.0,63.0
117052,Reedley College,Reedley,CA,93654,8,36.605968,-119.45993,,,,26300.0,9655.0,7899.0
117104,Life Pacific College,San Dimas,CA,91773-3298,8,34.098704999999995,-117.829388,0.9732,889.0,19.0,32700.0,24838.0,534.0
117113,Argosy University-The Art Institute of California-San Diego,San Diego,CA,92108-4423,8,32.778278,-117.155395,,,,41400.0,29567.0,1118.0
117140,University of La Verne,La Verne,CA,91750-4401,8,34.10086,-117.77263400000001,0.4806,1040.0,23.0,49200.0,50603.0,5367.0
117168,Laguna College of Art and Design,Laguna Beach,CA,92651,8,33.561448,-117.77256399999999,0.3919,,,32900.0,44317.0,567.0
117195,Lake Tahoe Community College,South Lake Tahoe,CA,96150,8,38.926797,-119.972574,,,,25900.0,10476.0,1796.0
117247,Laney College,Oakland,CA,94607,8,37.796205,-122.26243400000001,,,,27700.0,15330.0,9482.0
117274,Lassen Community College,Susanville,CA,96130,8,40.431327,-120.631169,,,,31300.0,14029.0,1948.0
117557,Lincoln University,Oakland,CA,94612-2801,8,37.804788,-122.269745,,,,,21195.0,138.0
117575,Southern California Seminary,El Cajon,CA,92019-1108,8,32.799614,-116.90546100000002,,,,,31893.0,72.0
117627,La Sierra University,Riverside,CA,92505-8247,8,33.910703999999996,-117.500054,0.4593,906.0,19.0,49500.0,42033.0,1898.0
117636,Loma Linda University,Loma Linda,CA,92350,8,34.051241,-117.260605,,,,80600.0,,1038.0
117645,Long Beach City College,Long Beach,CA,90808-1706,8,33.831741,-118.135819,,,,28900.0,10568.0,23202.0
117690,Los Angeles Harbor College,Wilmington,CA,90744-2397,8,33.784201,-118.28186000000001,,,,32100.0,16347.0,8000.0
117706,Los Angeles Pierce College,Woodland Hills,CA,91371-0002,8,34.183949,-118.575071,,,,34900.0,14954.0,18099.0
117715,Los Angeles Southwest College,Los Angeles,CA,90047-4899,8,33.929586,-118.304674,,,,24800.0,12190.0,5691.0
117751,The Master's University and Seminary,Santa Clarita,CA,91321-1200,8,34.381755,-118.518193,0.8318,1098.0,25.0,41700.0,43846.0,1155.0
117803,Los Angeles County College of Nursing and Allied Health,Los Angeles,CA,90033-1084,8,34.062647,-118.21185200000001,,,,86500.0,,200.0
117867,Los Angeles Mission College,Sylmar,CA,91342-3200,8,34.314944,-118.419087,,,,32600.0,14234.0,8510.0
117894,Los Medanos College,Pittsburg,CA,94565,8,38.006474,-121.86096699999999,,,,34900.0,10878.0,7906.0
117928,Argosy University-The Art Institute of California-San Francisco,San Francisco,CA,94102-4908,8,37.780569,-122.413417,,,,41400.0,28125.0,629.0
117946,Loyola Marymount University,Los Angeles,CA,90045-2659,8,33.97085,-118.41574399999999,0.5387,1244.0,28.0,61300.0,60371.0,6126.0
118347,College of Marin,Kentfield,CA,94904-2590,8,37.954896999999995,-122.549149,,,,33700.0,13691.0,4482.0
118541,Marymount California University,Rancho Palos Verdes,CA,90275-6299,8,33.734887,-118.333371,,,,35900.0,50758.0,942.0
118684,Mendocino College,Ukiah,CA,95482,8,39.188989,-123.22880900000001,,,,26300.0,14039.0,3185.0
118693,Menlo College,Atherton,CA,94027-4301,8,37.453475,-122.190797,0.4087,1010.0,22.0,50900.0,56035.0,787.0
118718,Merced College,Merced,CA,95348-2898,8,37.3353,-120.47646399999999,,,,27000.0,15400.0,9478.0
118888,Mills College,Oakland,CA,94613,8,37.781425,-122.182294,0.8441,1109.0,26.0,39900.0,60311.0,819.0
118930,Mission College,Santa Clara,CA,95054-1897,8,37.391935,-121.980783,,,,34500.0,15052.0,6323.0
118976,Modesto Junior College,Modesto,CA,95350-5800,8,37.652042,-121.009723,,,,30800.0,14839.0,16552.0
119058,Middlebury Institute of International Studies at Monterey,Monterey,CA,93940,8,36.599736,-121.897325,,,,58200.0,,20.0
119067,Monterey Peninsula College,Monterey,CA,93940-4799,8,36.590558,-121.88493100000001,,,,31900.0,10718.0,7217.0
119137,Moorpark College,Moorpark,CA,93021-1695,8,34.301146,-118.834528,,,,38600.0,8577.0,13258.0
119164,Mt San Antonio College,Walnut,CA,91789-1399,8,34.047764,-117.84662900000001,,,,35000.0,9758.0,26595.0
119173,Mount Saint Mary's University,Los Angeles,CA,90049-1599,8,34.085315,-118.482879,0.8592,923.0,20.0,53200.0,50406.0,2779.0
119216,Mt San Jacinto Community College District,San Jacinto,CA,92583-2399,8,33.807364,-116.97006299999998,,,,28800.0,11634.0,14503.0
119331,Napa Valley College,Napa,CA,94558-6236,8,38.274081,-122.274381,,,,37000.0,17068.0,5626.0
119605,National University,La Jolla,CA,92037-1011,8,32.909894,-117.243026,,,,59400.0,26620.0,7982.0
119775,Newschool of Architecture and Design,San Diego,CA,92101,8,32.71331,-117.153305,0.9908,,,49400.0,44971.0,411.0
120184,Notre Dame de Namur University,Belmont,CA,94002-1908,8,37.517501,-122.284618,0.9668,913.0,20.0,56400.0,50415.0,982.0
120254,Occidental College,Los Angeles,CA,90041-3392,8,34.126224,-118.210783,0.4581,1315.0,30.0,50600.0,67046.0,1957.0
120290,Ohlone College,Fremont,CA,94539-0390,8,37.52773,-121.916339,,,,38900.0,16547.0,8578.0
120403,Otis College of Art and Design,Los Angeles,CA,90045-3505,8,33.956607,-118.416615,0.9295,,,44900.0,56519.0,1015.0
120421,Oxnard College,Oxnard,CA,93033-6699,8,34.166104,-119.157604,,,,31000.0,8516.0,6506.0
120537,Hope International University,Fullerton,CA,92831-3199,8,33.87616,-117.88573000000001,0.3211,942.0,21.0,36000.0,38570.0,940.0
120698,Palo Alto University,Palo Alto,CA,94304-1337,8,37.382216,-122.18743700000002,,,,,,157.0
120768,Pacific Oaks College,Pasadena,CA,91103,8,34.153382,-118.151323,,,,42800.0,,522.0
120838,Pacific States University,Los Angeles,CA,90010-2263,8,34.061315,-118.29840800000001,,,,,,12.0
120865,Pacific Union College,Angwin,CA,94508-9707,8,38.570584999999994,-122.440308,0.4655,986.0,21.0,51700.0,41700.0,1400.0
120883,University of the Pacific,Stockton,CA,95211-0197,8,37.981424,-121.312301,0.6599,1180.0,27.0,71700.0,56899.0,3474.0
121044,Pasadena City College,Pasadena,CA,91106-2003,8,34.144552000000004,-118.118196,,,,33800.0,11958.0,24790.0
121150,Pepperdine University,Malibu,CA,90263,8,34.037786,-118.707077,0.3687,1251.0,29.0,65500.0,66152.0,3528.0
121257,Pitzer College,Claremont,CA,91711-6101,8,34.104107,-117.706675,0.1374,,,48700.0,65880.0,1062.0
121275,Platt College-San Diego,San Diego,CA,92115-3919,8,32.763729999999995,-117.063483,,,,37000.0,42343.0,202.0
121309,Point Loma Nazarene University,San Diego,CA,92106-2899,8,32.718391,-117.25026499999998,0.6942,1149.0,26.0,50900.0,46683.0,2986.0
121345,Pomona College,Claremont,CA,91711-6319,8,34.098298,-117.71194399999999,0.0944,1442.0,33.0,58100.0,64870.0,1547.0
121363,Porterville College,Porterville,CA,93257,8,36.049256,-119.01436799999999,,,,27700.0,9734.0,3408.0
121619,Santa Ana College,Santa Ana,CA,92706-3398,8,33.759203,-117.888384,,,,33800.0,10446.0,26204.0
121691,University of Redlands,Redlands,CA,92373-0999,8,34.064218,-117.163218,0.7475,1101.0,25.0,55000.0,61542.0,3169.0
121707,College of the Redwoods,Eureka,CA,95501-9300,8,40.698427,-124.19529299999999,,,,28100.0,10608.0,4058.0
121886,Rio Hondo College,Whittier,CA,90601-1616,8,34.019878000000006,-118.03332900000001,,,,35100.0,11991.0,16714.0
121901,Riverside City College,Riverside,CA,92506,8,33.971481,-117.38054,,,,31600.0,12578.0,17482.0
121983,Argosy University-San Francisco Bay Area,Alameda,CA,94501,8,37.781238,-122.267523,,,,41400.0,,110.0
122180,Sacramento City College,Sacramento,CA,95822-1386,8,38.541096,-121.49113899999999,,,,34300.0,14372.0,20141.0
122296,Samuel Merritt University,Oakland,CA,94609,8,37.82029,-122.26633100000001,,,,111100.0,,650.0
122339,San Diego City College,San Diego,CA,92101-4787,8,32.718855,-117.151641,,,,29200.0,12068.0,14323.0
122366,Golf Academy of America-San Diego,Carlsbad,CA,92008,8,33.12291,-117.283394,,,,24600.0,29220.0,117.0
122375,San Diego Mesa College,San Diego,CA,92111-4998,8,32.803825,-117.16916499999999,,,,37800.0,12382.0,20443.0
122384,San Diego Miramar College,San Diego,CA,92126-2999,8,32.909546,-117.120888,,,,39300.0,11912.0,12793.0
122409,San Diego State University,San Diego,CA,92182,8,32.77525,-117.071228,0.3464,1132.0,26.0,51000.0,22056.0,29398.0
122436,University of San Diego,San Diego,CA,92110-2492,8,32.77142,-117.188721,0.5138,1237.0,28.0,60000.0,61004.0,5604.0
122454,San Francisco Art Institute,San Francisco,CA,94133-2299,8,37.803575,-122.417,0.9261,,,31900.0,65453.0,332.0
122506,San Francisco Conservatory of Music,San Francisco,CA,94102-6011,8,37.775543,-122.42029199999999,0.4175,,,19700.0,60410.0,187.0
122597,San Francisco State University,San Francisco,CA,94132,8,37.721345,-122.477905,0.682,979.0,21.0,49200.0,22396.0,24882.0
122612,University of San Francisco,San Francisco,CA,94117-1080,8,37.775564,-122.45097700000001,0.7137,1150.0,26.0,62300.0,61072.0,6664.0
122658,San Joaquin Delta College,Stockton,CA,95207,8,37.994642999999996,-121.317226,,,,30800.0,16084.0,15097.0
122685,San Joaquin Valley College-Visalia,Visalia,CA,93291-9283,8,36.328049,-119.38498100000001,,,,28300.0,,5553.0
122728,William Jessup University,Rocklin,CA,95765-3707,8,38.819728000000005,-121.29231200000001,0.7251,1023.0,22.0,37300.0,40390.0,1159.0
122746,San Jose City College,San Jose,CA,95128-2798,8,37.315827,-121.926185,,,,31400.0,15892.0,6840.0
122755,San Jose State University,San Jose,CA,95192-0001,8,37.336569,-121.88062099999999,0.5344,1039.0,23.0,56100.0,22780.0,26253.0
122834,Santa Barbara Business College-Bakersfield,Bakersfield,CA,93309,8,35.359544,-119.061264,,,,24800.0,20028.0,422.0
122852,Santa Barbara Business College-Santa Maria,Santa Maria,CA,93454,8,34.937806,-120.433296,,,,29400.0,19913.0,104.0
122889,Santa Barbara City College,Santa Barbara,CA,93109-2394,8,34.406788,-119.698045,,,,36800.0,15882.0,13827.0
122931,Santa Clara University,Santa Clara,CA,95053,8,37.348362,-121.93784,0.483,1321.0,30.0,72600.0,62964.0,5411.0
122977,Santa Monica College,Santa Monica,CA,90405-1628,8,34.017022,-118.469765,,,,33000.0,11844.0,28154.0
123165,Scripps College,Claremont,CA,91711-3905,8,34.104147,-117.711294,0.2988,1353.0,30.0,54100.0,66060.0,1030.0
123217,College of the Sequoias,Visalia,CA,93277-2214,8,36.322957,-119.314775,,,,27400.0,8109.0,10581.0
123280,Shasta Bible College and Graduate School,Redding,CA,96002,8,40.566034,-122.314419,1.0,,,,22005.0,46.0
123299,Shasta College,Redding,CA,96003,8,40.625731,-122.317982,,,,27500.0,12745.0,7285.0
123341,Sierra College,Rocklin,CA,95677-3397,8,38.790773,-121.211688,,,,30700.0,13072.0,16357.0
123457,Simpson University,Redding,CA,96003-8606,8,40.61331,-122.333048,0.5215,985.0,21.0,34500.0,37437.0,788.0
123484,College of the Siskiyous,Weed,CA,96094-2899,8,41.413848,-122.38916599999999,,,,25900.0,14027.0,2002.0
123509,Skyline College,San Bruno,CA,94066-1698,8,37.63042,-122.467335,,,,40500.0,8580.0,8242.0
123527,San Bernardino Valley College,San Bernardino,CA,92410-2798,8,34.086353,-117.313248,,,,27300.0,14005.0,11023.0
123554,Saint Mary's College of California,Moraga,CA,94575,8,37.840731,-122.109031,0.8039,1093.0,25.0,56300.0,61095.0,2789.0
123563,Solano Community College,Fairfield,CA,94534-3197,8,38.235881,-122.122368,,,,34800.0,12558.0,8219.0
123572,Sonoma State University,Rohnert Park,CA,94928-3609,8,38.340274,-122.677066,0.7627,990.0,22.0,49200.0,24000.0,8572.0
123633,South Baylo University,Anaheim,CA,92801-1701,8,33.847936,-117.95866299999999,,,,31700.0,,261.0
123651,Vanguard University of Southern California,Costa Mesa,CA,92626,8,33.662686,-117.90091100000001,0.7024,942.0,21.0,41800.0,42564.0,1765.0
123800,Southwestern College,Chula Vista,CA,91910-7299,8,32.641566999999995,-116.997215,,,,30800.0,10713.0,16952.0
123952,Southern California Institute of Architecture,Los Angeles,CA,90013-1822,8,34.044215,-118.232799,,,,43100.0,67225.0,257.0
123961,University of Southern California,Los Angeles,CA,90089,8,34.021281,-118.28416899999999,0.1662,1395.0,32.0,74000.0,67064.0,18557.0
124113,Taft College,Taft,CA,93268,8,35.149343,-119.459751,,,,31800.0,12882.0,5550.0
124292,Thomas Aquinas College,Santa Paula,CA,93060,8,34.429009,-119.08714099999999,0.7461,1249.0,28.0,42100.0,35724.0,386.0
124487,Epic Bible College,Sacramento,CA,95841,8,38.645152,-121.362642,0.7857,,,25100.0,25468.0,171.0
125028,Ventura College,Ventura,CA,93003-3872,8,34.277035,-119.230659,,,,33800.0,8407.0,11644.0
125091,Victor Valley College,Victorville,CA,92395-5850,8,34.472231,-117.26145600000001,,,,27800.0,14703.0,9825.0
125170,Berkeley City College,Berkeley,CA,94704,8,37.869769,-122.26987700000001,,,,32600.0,13200.0,6207.0
125231,Walden University,Minneapolis,MN,55401,4,44.98125,-93.265738,,,,50100.0,,7329.0
125499,West Valley College,Saratoga,CA,95070-5698,8,37.26398,-122.008324,,,,38800.0,14989.0,7118.0
125532,Carrington College-Sacramento,Sacramento,CA,95826,8,38.556151,-121.37133100000001,0.4588,,,30800.0,,1186.0
125727,Westmont College,Santa Barbara,CA,93108-1089,8,34.450151,-119.662517,0.8276,1171.0,26.0,51400.0,57387.0,1277.0
125763,Whittier College,Whittier,CA,90601,8,33.977625,-118.028402,0.6945,1040.0,23.0,46800.0,53966.0,1594.0
125897,Woodbury University,Burbank,CA,91510-7846,8,34.208011,-118.34114699999999,0.6624,1012.0,24.0,48200.0,48733.0,1103.0
126076,Yeshiva Ohr Elchonon Chabad West Coast Talmudical Seminary,Los Angeles,CA,90046-7660,8,34.085494,-118.34668799999999,0.6406,,,,25800.0,151.0
126119,Yuba College,Marysville,CA,95901,8,39.126536,-121.53963999999999,,,,28600.0,11182.0,5722.0
126182,Adams State University,Alamosa,CO,81101,7,37.473636,-105.87964199999999,0.9857,933.0,20.0,35200.0,21026.0,1982.0
126359,Bel-Rea Institute of Animal Technology,Denver,CO,80247,7,39.686194,-104.87620700000001,0.3196,,,29600.0,25126.0,411.0
126562,University of Colorado Denver/Anschutz Medical Campus,Denver,CO,80217-3364,7,39.745149,-104.837722,0.6052,1077.0,24.0,56400.0,20306.0,11228.0
126580,University of Colorado Colorado Springs,Colorado Springs,CO,80918,7,38.892734999999995,-104.800296,0.9286,1069.0,23.0,43900.0,21038.0,10153.0
126605,Spartan College of Aeronautics and Technology,Broomfield,CO,80021-3465,7,39.914821999999994,-105.119096,,,,46300.0,26124.0,478.0
126614,University of Colorado Boulder,Boulder,CO,80309-0017,7,40.008781,-105.270823,0.7662,1229.0,28.0,50800.0,31393.0,27376.0
126669,Colorado Christian University,Lakewood,CO,80226,7,39.713879999999996,-105.09456000000002,,,,39300.0,41463.0,4697.0
126678,Colorado College,Colorado Springs,CO,80903,7,38.848859999999995,-104.82269699999999,0.1599,,,45400.0,63600.0,2084.0
126702,The Art Institute of Colorado,Denver,CO,80203-2983,7,39.735587,-104.98584699999999,,,,33300.0,27373.0,811.0
126748,Colorado Northwestern Community College,Rangely,CO,81648-3598,7,40.081112,-108.790048,,,,38400.0,17305.0,625.0
126775,Colorado School of Mines,Golden,CO,80401,7,39.751443,-105.22336399999999,0.4035,1354.0,31.0,84900.0,31226.0,4564.0
126784,Colorado School of Trades,Lakewood,CO,80215-2996,7,39.74181,-105.104174,,,,35100.0,,170.0
126818,Colorado State University-Fort Collins,Fort Collins,CO,80523-0100,7,40.574805,-105.08073200000001,0.7796,1159.0,26.0,47100.0,24885.0,23497.0
126827,Colorado Technical University-Colorado Springs,Colorado Springs,CO,80907-3812,7,38.894265000000004,-104.833928,,,,42200.0,24136.0,21986.0
126863,Community College of Aurora,Aurora,CO,80011-9036,7,39.71788,-104.802673,,,,34200.0,15424.0,4748.0
126872,CollegeAmerica-Denver,Denver,CO,80222,7,39.691571,-104.94116799999999,,,,27100.0,30470.0,201.0
126942,Community College of Denver,Denver,CO,80204-2026,7,39.741413,-105.001044,,,,31500.0,14516.0,7622.0
127060,University of Denver,Denver,CO,80208,7,39.678005,-104.96325900000001,0.5347,1262.0,29.0,56500.0,59656.0,5738.0
127185,Fort Lewis College,Durango,CO,81301-3999,7,37.275939,-107.86742199999999,0.9212,1014.0,22.0,35200.0,24298.0,3443.0
127389,Lamar Community College,Lamar,CO,81052-3999,7,38.068886,-102.61614399999999,,,,28400.0,16527.0,488.0
127556,Colorado Mesa University,Grand Junction,CO,81501-3122,7,39.080643,-108.553275,0.8275,989.0,21.0,36800.0,19224.0,8734.0
127565,Metropolitan State University of Denver,Denver,CO,80217-3362,7,39.744202,-105.00504,0.6387,951.0,20.0,40200.0,18017.0,19334.0
127653,Naropa University,Boulder,CO,80302-6697,7,40.014235,-105.26698700000001,1.0,,,20700.0,47114.0,374.0
127680,National American University-Colorado Springs,Colorado Springs,CO,80920,7,38.952175,-104.79095699999999,,,,34500.0,,194.0
127714,Nazarene Bible College,Colorado Springs,CO,80916-1905,7,38.814671000000004,-104.751176,,,,29700.0,,693.0
127741,University of Northern Colorado,Greeley,CO,80639,7,40.410855,-104.692777,0.9027,1031.0,22.0,42000.0,21640.0,9098.0
127820,Pikes Peak Community College,Colorado Springs,CO,80906-5498,7,38.764287,-104.787261,,,,31300.0,15163.0,10796.0
127839,IBMC College,Colorado Springs,CO,80919,7,38.93098,-104.814251,,,,26200.0,,269.0
127918,Regis University,Denver,CO,80221-1099,7,39.788175,-105.03075600000001,0.5659,1098.0,24.0,56400.0,45305.0,4016.0
127945,Rocky Mountain College of Art and Design,Lakewood,CO,80214,7,39.743320000000004,-105.069911,,,,33000.0,28170.0,898.0
128106,Colorado State University-Pueblo,Pueblo,CO,81001-4901,7,38.30859,-104.579033,0.9638,969.0,21.0,37500.0,19561.0,3953.0
128179,Intellitec College-Colorado Springs,Colorado Springs,CO,80909-6096,7,38.832183,-104.78721,,,,34700.0,,742.0
128188,Intellitec College-Grand Junction,Grand Junction,CO,81506,7,39.116346,-108.53062,,,,21700.0,,942.0
128391,Western State Colorado University,Gunnison,CO,81231,7,38.549436,-106.91843899999999,0.9188,1026.0,22.0,39000.0,21431.0,1987.0
128498,Albertus Magnus College,New Haven,CT,06511-1189,1,41.332519,-72.92384799999999,,,,51200.0,45178.0,1218.0
128683,Lincoln College of New England-Southington,Southington,CT,06489-1057,1,41.632345,-72.92021700000001,,,,33900.0,32863.0,536.0
128744,University of Bridgeport,Bridgeport,CT,06604-5620,1,41.164741,-73.190166,0.5778,930.0,21.0,43100.0,50082.0,2941.0
128771,Central Connecticut State University,New Britain,CT,06050,1,41.692502000000005,-72.765991,0.6001,1000.0,22.0,47900.0,21706.0,9269.0
128780,Charter Oak State College,New Britain,CT,06053,1,41.688246,-72.767972,,,,38800.0,,1459.0
128902,Connecticut College,New London,CT,06320-4196,1,41.379833000000005,-72.107321,0.3513,,,54900.0,64915.0,1822.0
129020,University of Connecticut,Storrs,CT,06269,1,41.809098,-72.249948,0.488,1248.0,29.0,58400.0,29128.0,19030.0
129154,Goodwin College,East Hartford,CT,06118,1,41.742977,-72.64031999999999,,,,38300.0,30650.0,3390.0
129215,Eastern Connecticut State University,Willimantic,CT,06226,1,41.721672999999996,-72.218753,0.5791,,,46400.0,24077.0,4818.0
129242,Fairfield University,Fairfield,CT,06824-5195,1,41.157672999999996,-73.255903,0.6147,,,72100.0,60526.0,3955.0
129367,Capital Community College,Hartford,CT,06103,1,41.768397,-72.67273399999999,,,,32300.0,11960.0,2928.0
129525,University of Hartford,West Hartford,CT,06117-1599,1,41.798590999999995,-72.715213,0.7193,1046.0,23.0,47800.0,51495.0,4924.0
129534,Holy Apostles College and Seminary,Cromwell,CT,06416-2005,1,41.60682,-72.647853,,,,,8650.0,116.0
129543,Housatonic Community College,Bridgeport,CT,06604-4704,1,41.175228000000004,-73.19100300000001,,,,29900.0,10495.0,4744.0
129695,Manchester Community College,Manchester,CT,06040,1,41.761625,-72.561939,,,,34700.0,9618.0,5794.0
129729,Naugatuck Valley Community College,Waterbury,CT,06708-3089,1,41.549749,-73.072963,,,,35400.0,10810.0,5976.0
129756,Middlesex Community College,Middletown,CT,06457-4829,1,41.539516,-72.611838,,,,35300.0,10466.0,2379.0
129774,Mitchell College,New London,CT,06320,1,41.328013,-72.09523,0.8756,,,32000.0,45364.0,579.0
129808,Three Rivers Community College,Norwich,CT,06360,1,41.509945,-72.103039,,,,32700.0,11054.0,3905.0
129941,University of New Haven,West Haven,CT,06516-1916,1,41.291314,-72.961472,0.8053,1043.0,23.0,52100.0,51801.0,4850.0
130004,Norwalk Community College,Norwalk,CT,06854,1,41.102574,-73.450965,,,,33500.0,12207.0,4598.0
130040,Northwestern Connecticut Community College,Winsted,CT,06098,1,41.920668,-73.058734,,,,33900.0,10686.0,1066.0
130110,Paier College of Art Inc,Hamden,CT,06514-3902,1,41.347714,-72.935048,,,,31400.0,19950.0,95.0
130183,Post University,Waterbury,CT,06723,1,41.535548999999996,-73.081497,0.4071,893.0,19.0,40900.0,30004.0,6894.0
130217,Quinebaug Valley Community College,Danielson,CT,06239-1436,1,41.826229999999995,-71.889673,,,,26100.0,12735.0,1434.0
130226,Quinnipiac University,Hamden,CT,06518,1,41.418915000000005,-72.89411700000001,0.7644,1096.0,25.0,63300.0,58713.0,7042.0
130253,Sacred Heart University,Fairfield,CT,06825-1000,1,41.220893,-73.243332,0.5721,,,56000.0,54037.0,5325.0
130314,University of Saint Joseph,West Hartford,CT,06117,1,41.781040999999995,-72.72965,0.8759999999999999,985.0,,52800.0,47147.0,843.0
130396,Gateway Community College,New Haven,CT,06510,1,41.303785,-72.92768199999999,,,,32800.0,10346.0,6494.0
130448,St Vincent's College,Bridgeport,CT,06606-4201,1,41.201198,-73.20110600000001,0.7049,788.0,,58100.0,25743.0,745.0
130493,Southern Connecticut State University,New Haven,CT,06515-1355,1,41.333225,-72.947897,0.6352,933.0,21.0,45300.0,21029.0,7963.0
130590,Trinity College,Hartford,CT,06106-3100,1,41.747451,-72.69088199999999,0.3395,,,66100.0,66420.0,2225.0
130606,Tunxis Community College,Farmington,CT,06032-3187,1,41.705498,-72.87754,,,,34600.0,11510.0,3304.0
130697,Wesleyan University,Middletown,CT,06459,1,41.554665,-72.657146,0.1785,,,54700.0,65443.0,2913.0
130776,Western Connecticut State University,Danbury,CT,06810-6826,1,41.400365,-73.444264,0.6683,,,45200.0,23264.0,5001.0
130794,Yale University,New Haven,CT,06520,1,41.311158,-72.926688,0.0632,1502.0,34.0,83200.0,66445.0,5471.0
130907,Delaware Technical Community College-Terry,Dover,DE,19901,2,39.198371,-75.56012,,,,31300.0,11579.0,12825.0
130934,Delaware State University,Dover,DE,19901,2,39.187173,-75.54053,0.4065,898.0,19.0,35800.0,21177.0,3692.0
130943,University of Delaware,Newark,DE,19716,2,39.679577,-75.752822,0.695,1170.0,26.0,57000.0,24557.0,18510.0
130989,Goldey-Beacom College,Wilmington,DE,19808,2,39.741501,-75.689624,0.5808,,,44500.0,36339.0,687.0
131098,Wesley College,Dover,DE,19901-3875,2,39.163182,-75.527716,0.6047,830.0,16.0,42900.0,39189.0,1345.0
131113,Wilmington University,New Castle,DE,19720,2,39.682299,-75.586998,,,,42500.0,17209.0,8377.0
131159,American University,Washington,DC,20016-8001,2,38.936005,-77.088875,0.2591,1262.0,29.0,61000.0,60501.0,7276.0
131283,Catholic University of America,Washington,DC,20064,2,38.933651,-76.99790899999999,0.7955,,,56800.0,57561.0,3220.0
131399,University of the District of Columbia,Washington,DC,20008,2,38.943819,-77.066247,,,,35200.0,20714.0,3695.0
131450,Gallaudet University,Washington,DC,20002-3695,2,38.907371000000005,-76.993675,0.6614,827.0,17.0,31000.0,35288.0,1112.0
131469,George Washington University,Washington,DC,20052,2,38.899229999999996,-77.048363,0.4021,1301.0,30.0,69600.0,65218.0,11244.0
131496,Georgetown University,Washington,DC,20057-0001,2,38.908809000000005,-77.073463,0.1685,1422.0,32.0,93500.0,66971.0,7112.0
131520,Howard University,Washington,DC,20059-0001,2,38.922391999999995,-77.018966,0.3,1142.0,25.0,49200.0,43116.0,5830.0
131803,Strayer University-District of Columbia,Washington,DC,20005,2,38.904881,-77.034133,,,,45900.0,29544.0,798.0
131876,Trinity Washington University,Washington,DC,20017-1094,2,38.927398,-77.004261,0.8855,,,38800.0,31410.0,1536.0
132338,The Art Institute of Fort Lauderdale,Fort Lauderdale,FL,33316-3000,5,26.101096,-80.123514,,,,30500.0,27394.0,956.0
132408,The Baptist College of Florida,Graceville,FL,32440,5,30.962708000000003,-85.50393100000001,0.5868,910.0,20.0,31800.0,17117.0,430.0
132471,Barry University,Miami,FL,33161-6695,5,25.878908,-80.198925,0.6159,930.0,20.0,45800.0,44430.0,3461.0
132602,Bethune-Cookman University,Daytona Beach,FL,32114-3099,5,29.207195000000002,-81.032946,,,,29200.0,27193.0,3741.0
132657,Lynn University,Boca Raton,FL,33431-5598,5,26.385984999999998,-80.12280600000001,0.8173,984.0,22.0,39300.0,51585.0,2053.0
132693,Eastern Florida State College,Cocoa,FL,32922,5,28.383609999999997,-80.756474,,,,29300.0,10225.0,12321.0
132842,Carlos Albizu University-Miami,Miami,FL,33172-2209,5,25.794178,-80.35631500000001,0.3953,,,30200.0,28348.0,210.0
132851,College of Central Florida,Ocala,FL,34474,5,29.166078999999996,-82.175692,,,,31400.0,14058.0,6154.0
132879,Johnson University Florida,Kissimmee,FL,34744,5,28.302546999999997,-81.36305300000001,0.6164,972.0,21.0,29800.0,21876.0,181.0
132903,University of Central Florida,Orlando,FL,32816,5,28.602159000000004,-81.200889,0.4999,1179.0,26.0,45400.0,21168.0,55113.0
133021,Chipola College,Marianna,FL,32446-2053,5,30.789228,-85.23139,,,,30300.0,9483.0,1620.0
133386,Daytona State College,Daytona Beach,FL,32114,5,29.203275,-81.049685,,,,28700.0,8773.0,8758.0
133465,South University-West Palm Beach,Royal Palm Beach,FL,33411,5,26.69215,-80.20021899999999,,,,33400.0,27597.0,797.0
133492,Eckerd College,Saint Petersburg,FL,33711-4700,5,27.715798,-82.687043,0.7213,1125.0,25.0,42200.0,55113.0,2028.0
133508,Florida SouthWestern State College,Fort Myers,FL,33919,5,26.552403,-81.887102,,,,34700.0,14520.0,11035.0
133526,Edward Waters College,Jacksonville,FL,32209,5,30.344790000000003,-81.68487900000001,0.5770000000000001,808.0,17.0,25900.0,24706.0,945.0
133553,Embry-Riddle Aeronautical University-Daytona Beach,Daytona Beach,FL,32114-3900,5,29.189903,-81.048367,0.7072,,,66200.0,49338.0,5407.0
133650,Florida Agricultural and Mechanical University,Tallahassee,FL,32307,5,30.428503999999997,-84.290226,0.3111,1001.0,22.0,37600.0,20231.0,7365.0
133669,Florida Atlantic University,Boca Raton,FL,33431-0991,5,26.372421000000003,-80.10297800000001,0.5978,1047.0,23.0,43200.0,18992.0,24221.0
133702,Florida State College at Jacksonville,Jacksonville,FL,32202,5,30.334918,-81.659901,,,,31900.0,10970.0,20507.0
133711,Flagler College-St Augustine,Saint Augustine,FL,32084,5,29.892733000000003,-81.314887,0.5505,1079.0,24.0,38900.0,30334.0,2611.0
133809,Florida College,Temple Terrace,FL,33617,5,28.034936,-82.383289,0.7852,1068.0,23.0,39100.0,28664.0,537.0
133872,Adventist University of Health Sciences,Orlando,FL,32803,5,28.576141999999997,-81.367687,0.7629,917.0,20.0,56000.0,23306.0,1529.0
133881,Florida Institute of Technology,Melbourne,FL,32901-6975,5,28.065815,-80.622893,0.6133,1179.0,27.0,56600.0,55984.0,3419.0
133951,Florida International University,Miami,FL,33199,5,25.75732,-80.373928,0.5007,1130.0,25.0,46300.0,18873.0,41112.0
133960,Florida Keys Community College,Key West,FL,33040,5,24.582748000000002,-81.74446,,,,29300.0,14583.0,798.0
133979,Florida Memorial University,Miami Gardens,FL,33054-6199,5,25.918278,-80.270753,0.2496,,,27600.0,26033.0,1280.0
134079,Florida Southern College,Lakeland,FL,33801-5698,5,28.032443,-81.948203,0.4554,1177.0,27.0,41400.0,43984.0,2567.0
134097,Florida State University,Tallahassee,FL,32306-1037,5,30.440756,-84.291921,0.5801,1214.0,27.0,46400.0,21938.0,32417.0
134130,University of Florida,Gainesville,FL,32611,5,29.646290000000004,-82.347911,0.4594,1287.0,29.0,56000.0,20571.0,33309.0
134237,Full Sail University,Winter Park,FL,32792-7429,5,28.596546000000004,-81.301286,,,,39300.0,37276.0,17504.0
134343,Gulf Coast State College,Panama City,FL,32401,5,30.185541999999998,-85.727918,,,,29700.0,8178.0,4017.0
134422,Key College,Fort Lauderdale,FL,33304-3046,5,26.138855,-80.114145,1.0,,,21600.0,26530.0,46.0
134495,Hillsborough Community College,Tampa,FL,33606-3584,5,27.934888,-82.456253,,,,33300.0,9491.0,23216.0
134510,Hobe Sound Bible College,Hobe Sound,FL,33455-1065,5,27.066304,-80.13184,,,,,14378.0,203.0
134608,Indian River State College,Fort Pierce,FL,34981-5596,5,27.424159999999997,-80.358682,,,,30400.0,6319.0,14095.0
134680,Sanford-Brown College-Tampa,Tampa,FL,33307,5,27.953202,-82.504615,,,,29300.0,,57.0
134811,AI Miami International University of Art and Design,Miami,FL,33132-1418,5,25.790008,-80.18839,,,,31600.0,27264.0,1863.0
134945,Jacksonville University,Jacksonville,FL,32211-3394,5,30.353227,-81.60458,0.4918,,,50500.0,50441.0,2841.0
135063,Jones College-Jacksonville,Jacksonville,FL,32211,5,30.328002,-81.610068,,,,28500.0,16516.0,182.0
135081,Keiser University-Ft Lauderdale,Fort Lauderdale,FL,33309,5,26.185869,-80.16395899999999,,,,31100.0,32307.0,17789.0
135160,Florida Gateway College,Lake City,FL,32025-2007,5,30.175297999999998,-82.5679,,,,29500.0,9462.0,2156.0
135188,Lake-Sumter State College,Leesburg,FL,34788-8751,5,28.828649,-81.79719300000001,,,,30900.0,9346.0,3639.0
135364,Luther Rice College & Seminary,Lithonia,GA,30038-9869,5,33.698126,-84.12317900000001,0.7647,,,44800.0,11064.0,347.0
135391,State College of Florida-Manatee-Sarasota,Bradenton,FL,34207,5,27.43804,-82.590887,,,,30900.0,15456.0,8739.0
135610,Trinity International University-Florida,Miramar,FL,33027,5,25.973916,-80.350735,,,,41100.0,,179.0
135717,Miami Dade College,Miami,FL,33132-2204,5,25.777717000000003,-80.19085600000001,,,,31100.0,13284.0,50604.0
135726,University of Miami,Coral Gables,FL,33146,5,25.72126,-80.278662,0.3771,1323.0,30.0,60100.0,59833.0,10577.0
136066,Lincoln College of Technology-West Palm Beach,West Palm Beach,FL,33407,5,26.756086,-80.092489,,,,27600.0,26482.0,345.0
136145,North Florida Community College,Madison,FL,32340,5,30.473840999999997,-83.420732,,,,29400.0,9545.0,909.0
136172,University of North Florida,Jacksonville,FL,32224-7699,5,30.27194,-81.50914399999999,0.6453,1110.0,24.0,43200.0,20926.0,13585.0
136215,Nova Southeastern University,Fort Lauderdale,FL,33314-7796,5,26.079337,-80.24248,0.5254,1127.0,25.0,45300.0,43351.0,4230.0
136233,Northwest Florida State College,Niceville,FL,32578-1295,5,30.540017,-86.47456,,,,27800.0,12237.0,4185.0
136330,Palm Beach Atlantic University,West Palm Beach,FL,33401,5,26.7044,-80.05247,0.9337,1076.0,24.0,40600.0,40568.0,2474.0
136358,Palm Beach State College,Lake Worth,FL,33461-4796,5,26.61256,-80.08653000000001,,,,33300.0,9513.0,26916.0
136400,Pasco-Hernando State College,New Port Richey,FL,34654-5199,5,28.2751,-82.646727,,,,29700.0,10639.0,9488.0
136473,Pensacola State College,Pensacola,FL,32504-8998,5,30.479267,-87.200265,,,,28200.0,10062.0,7723.0
136516,Polk State College,Winter Haven,FL,33881-4299,5,28.032411,-81.711873,,,,31800.0,12943.0,8583.0
136774,Ringling College of Art and Design,Sarasota,FL,34234-5895,5,27.360931,-82.547803,0.7814,,,33200.0,58729.0,1331.0
136950,Rollins College,Winter Park,FL,32789-4499,5,28.592787,-81.349239,0.6062,,,45700.0,62760.0,2642.0
137032,Saint Leo University,Saint Leo,FL,33574-6665,5,28.336776,-82.257801,0.6974,1032.0,23.0,43800.0,35092.0,10618.0
137078,St Petersburg College,Clearwater,FL,33760-2822,5,27.902420000000003,-82.717331,,,,32900.0,11947.0,25611.0
137096,Santa Fe College,Gainesville,FL,32606-6210,5,29.681037,-82.433143,,,,34600.0,12505.0,13799.0
137148,Argosy University-Sarasota,Sarasota,FL,34235,5,27.351394,-82.465363,,,,41400.0,24928.0,115.0
137272,Saint John Vianney College Seminary,Miami,FL,33165-3244,5,25.742579,-80.337411,1.0,,,,37300.0,61.0
137281,Saint Johns River State College,Palatka,FL,32177,5,29.647515999999996,-81.681387,,,,30800.0,11437.0,4807.0
137315,South Florida State College,Avon Park,FL,33825-9356,5,27.569740000000003,-81.508667,,,,26900.0,9965.0,2063.0
137351,University of South Florida-Main Campus,Tampa,FL,33620-9951,5,28.061458000000002,-82.413232,0.4663,1172.0,26.0,43500.0,19652.0,30553.0
137476,St Thomas University,Miami Gardens,FL,33054-6459,5,25.922071,-80.253273,0.5413,930.0,19.0,49400.0,37714.0,839.0
137546,Stetson University,DeLand,FL,32723,5,29.035475,-81.30074599999999,0.6559999999999999,,,43200.0,56208.0,3052.0
137564,Southeastern University,Lakeland,FL,33801-6034,5,28.029733,-81.918382,0.4585,978.0,21.0,34800.0,33954.0,4171.0
137759,Tallahassee Community College,Tallahassee,FL,32304-2895,5,30.443865999999996,-84.339,,,,30700.0,8761.0,11030.0
137777,Talmudic College of Florida,Miami Beach,FL,33140-3854,5,25.811996,-80.13629300000001,,,,,26650.0,39.0
137847,The University of Tampa,Tampa,FL,33606-1490,5,27.948455,-82.46483,0.483,1097.0,25.0,48600.0,40897.0,7363.0
137953,Trinity Baptist College,Jacksonville,FL,32221,5,30.311171,-81.79626,0.6476,874.0,18.0,33600.0,20433.0,314.0
137962,Trinity College of Florida,Trinity,FL,34655-4401,5,28.194732000000002,-82.678318,0.7067,827.0,17.0,29200.0,25373.0,199.0
138187,Valencia College,Orlando,FL,32835,5,28.520898,-81.471466,,,,32600.0,10910.0,38044.0
138275,Warner University,Lake Wales,FL,33859-8797,5,27.825751,-81.599972,0.4359,888.0,19.0,38600.0,31411.0,930.0
138293,Webber International University,Babson Park,FL,33827-0096,5,27.838778,-81.532315,0.4972,897.0,19.0,37200.0,39199.0,661.0
138309,Rasmussen College-Florida,Ocala,FL,34474-6226,5,29.140099,-82.197343,,,,32600.0,21516.0,7897.0
138354,The University of West Florida,Pensacola,FL,32514-5750,5,30.549076,-87.21851099999999,0.4083,1070.0,24.0,38900.0,17219.0,9657.0
138558,Abraham Baldwin Agricultural College,Tifton,GA,31793-2601,5,31.481889000000002,-83.528281,0.6561,932.0,20.0,32900.0,13171.0,3233.0
138600,Agnes Scott College,Decatur,GA,30030-3770,5,33.769268,-84.295459,0.6469,,,39400.0,49404.0,886.0
138664,Interactive College of Technology-Morrow,Morrow,GA,30260,5,33.57233,-84.33609799999999,,,,23000.0,17219.0,53.0
138691,Darton State College,Albany,GA,31707-3098,5,31.583594,-84.212087,,,,29600.0,13311.0,3791.0
138716,Albany State University,Albany,GA,31705,5,31.56928,-84.141825,0.4967,899.0,19.0,32200.0,19126.0,2576.0
138761,Andrew College,Cuthbert,GA,39840-5550,5,31.772321,-84.79502099999999,1.0,,,29000.0,29406.0,267.0
138789,Armstrong State University,Savannah,GA,31419-1997,5,31.979073,-81.161803,0.8038,987.0,21.0,39900.0,25433.0,6180.0
138813,The Art Institute of Atlanta,Atlanta,GA,30328-1635,5,33.936023999999996,-84.35525200000001,,,,30900.0,29448.0,1955.0
138868,Point University,West Point,GA,31833,5,32.87912,-85.184931,0.5144,922.0,20.0,32500.0,28898.0,1358.0
138901,Atlanta Metropolitan State College,Atlanta,GA,30310-4448,5,33.70893,-84.404659,,,,28000.0,10302.0,2486.0
138947,Clark Atlanta University,Atlanta,GA,30314-4391,5,33.747628000000006,-84.412584,0.7184,914.0,20.0,35500.0,36988.0,3093.0
139144,Berry College,Mount Berry,GA,30149,5,34.290414,-85.18920200000001,0.6209,1183.0,27.0,40000.0,45873.0,2055.0
139153,Beulah Heights University,Atlanta,GA,30316,5,33.736993,-84.35768,,,,29100.0,18230.0,351.0
139199,Brenau University,Gainesville,GA,30501-3668,5,34.303117,-83.821513,0.3565,973.0,22.0,42000.0,40016.0,1638.0
139205,Brewton-Parker College,Mount Vernon,GA,30445,5,32.185718,-82.586136,,,,31900.0,29446.0,462.0
139250,College of Coastal Georgia,Brunswick,GA,31520-3644,5,31.182745,-81.485973,0.9521,896.0,19.0,28300.0,15763.0,3174.0
139287,Carver Bible College,Atlanta,GA,30331,5,33.723362,-84.515547,,,,,21156.0,52.0
139311,Clayton  State University,Morrow,GA,30260-0285,5,33.594079,-84.328174,0.4092,,,38800.0,17241.0,5752.0
139366,Columbus State University,Columbus,GA,31907-5645,5,32.50096,-84.94106,0.5316,963.0,20.0,35900.0,18465.0,6557.0
139393,Covenant College,Lookout Mountain,GA,30750-4164,5,34.965161,-85.375066,0.9624,1191.0,27.0,41200.0,42998.0,981.0
139463,Dalton State College,Dalton,GA,30720-3797,5,34.774221000000004,-85.002775,,,,32300.0,12499.0,4780.0
139579,South University-Savannah,Savannah,GA,31406,5,31.999571000000003,-81.105435,,,,33400.0,27766.0,627.0
139621,East Georgia State College,Swainsboro,GA,30401,5,32.594944,-82.309021,,,,31500.0,9436.0,2785.0
139630,Emmanuel College,Franklin Springs,GA,30639,5,34.283640999999996,-83.14822,0.4055,943.0,20.0,33600.0,28192.0,770.0
139658,Emory University,Atlanta,GA,30322,5,33.790183,-84.325512,0.2529,1397.0,32.0,66000.0,63058.0,6717.0
139700,Georgia Highlands College,Rome,GA,30161-3897,5,34.169791,-85.207356,,,,34700.0,10550.0,5635.0
139719,Fort Valley State University,Fort Valley,GA,31030-4313,5,32.537595,-83.89537,0.2645,855.0,15.0,30900.0,19486.0,2223.0
139755,Georgia Institute of Technology-Main Campus,Atlanta,GA,30332-0530,5,33.772420000000004,-84.394832,0.2577,1417.0,32.0,79100.0,25616.0,14766.0
139764,Georgia Southwestern State University,Americus,GA,31709-4693,5,32.054662,-84.217738,0.6818,975.0,21.0,36400.0,19297.0,2409.0
139861,Georgia College & State University,Milledgeville,GA,31061,5,33.082786999999996,-83.231962,0.8452,1116.0,24.0,40500.0,26856.0,5923.0
139931,Georgia Southern University,Statesboro,GA,30460-8126,5,32.428808000000004,-81.782232,0.6455,1110.0,24.0,41900.0,22417.0,17349.0
139940,Georgia State University,Atlanta,GA,30303-3083,5,33.7527,-84.38667,0.5884,1070.0,23.0,43300.0,24223.0,24478.0
139959,University of Georgia,Athens,GA,30602,5,33.956262,-83.374039,0.539,1262.0,29.0,50500.0,24991.0,27851.0
139968,Gordon State College,Barnesville,GA,30204,5,33.04571,-84.15450799999999,0.5433,853.0,18.0,31200.0,18449.0,3577.0
139995,Gupton Jones College of Funeral Service,Decatur,GA,30035-4022,5,33.710709,-84.179775,,,,29000.0,21109.0,236.0
140003,Gwinnett College-Lilburn,Lilburn,GA,30047-3447,5,33.901271,-84.121874,,,,27600.0,26819.0,286.0
140234,LaGrange College,Lagrange,GA,30240-2999,5,33.038564,-85.043113,0.5772,1021.0,22.0,39600.0,42255.0,902.0
140252,Life University,Marietta,GA,30060,5,33.932781,-84.514729,0.9214,927.0,20.0,35600.0,34353.0,718.0
140340,Herzing University-Atlanta,Atlanta,GA,30326,5,33.845128,-84.361869,0.9606,,,37800.0,28209.0,599.0
140447,Mercer University,Macon,GA,31207,5,32.831787,-83.64829499999999,0.6935,1211.0,27.0,48200.0,48766.0,4645.0
140553,Morehouse College,Atlanta,GA,30314,5,33.745982,-84.414917,0.6607,994.0,22.0,41800.0,47860.0,2104.0
140696,Oglethorpe University,Atlanta,GA,30319-2797,5,33.875440999999995,-84.333687,0.804,1125.0,25.0,42100.0,48302.0,1183.0
140720,Paine College,Augusta,GA,30901-3182,5,33.469545000000004,-81.993225,0.2458,745.0,16.0,28200.0,24239.0,419.0
140818,Piedmont College,Demorest,GA,30535-0010,5,34.566041999999996,-83.542126,0.5715,991.0,22.0,40600.0,33659.0,1295.0
140872,Reinhardt University,Waleska,GA,30183-2981,5,34.319756,-84.554264,0.8745,965.0,21.0,36600.0,31939.0,1326.0
140951,Savannah College of Art and Design,Savannah,GA,31402-3146,5,32.072963,-81.093849,0.7171,1086.0,24.0,36400.0,53657.0,9931.0
140960,Savannah State University,Savannah,GA,31404-5310,5,32.024781,-81.063377,0.5078,823.0,17.0,31300.0,16542.0,4627.0
140988,Shorter University,Rome,GA,30165,5,34.257543,-85.196529,0.6115,961.0,21.0,43200.0,33083.0,1342.0
141060,Spelman College,Atlanta,GA,30314-4399,5,33.745279,-84.411527,0.3573,1092.0,24.0,47000.0,44933.0,2122.0
141167,Thomas University,Thomasville,GA,31792,5,30.815576,-83.963587,0.4736,,,34300.0,28432.0,722.0
141185,Toccoa Falls College,Toccoa Falls,GA,30598,5,34.593414,-83.357617,0.5414,962.0,21.0,29500.0,33616.0,796.0
141237,Truett McConnell University,Cleveland,GA,30528,5,34.596306,-83.74891099999999,0.9061,953.0,20.0,32600.0,29321.0,740.0
141264,Valdosta State University,Valdosta,GA,31698,5,30.847402000000002,-83.289282,0.6513,982.0,21.0,38700.0,21191.0,8589.0
141325,Wesleyan College,Macon,GA,31210-4462,5,32.876037,-83.715417,0.3765,1035.0,23.0,29900.0,31983.0,559.0
141334,University of West Georgia,Carrollton,GA,30118-0001,5,33.573621,-85.097762,0.5909,945.0,20.0,38200.0,21242.0,10599.0
141361,Young Harris College,Young Harris,GA,30582,5,34.933523,-83.84586999999999,0.5504,1004.0,22.0,37900.0,40161.0,1118.0
141486,Chaminade University of Honolulu,Honolulu,HI,96816-1578,8,21.28995,-157.807851,0.9133,976.0,21.0,38400.0,33824.0,1651.0
141565,University of Hawaii at Hilo,Hilo,HI,96720-4091,8,19.701189000000003,-155.080847,0.691,978.0,21.0,37900.0,19087.0,2962.0
141574,University of Hawaii at Manoa,Honolulu,HI,96822-2217,8,21.298598000000002,-157.818979,0.8498,1075.0,23.0,45800.0,22153.0,12767.0
141644,Hawaii Pacific University,Honolulu,HI,96813,8,21.310306,-157.859645,0.7537,,,49900.0,38052.0,3384.0
141680,Honolulu Community College,Honolulu,HI,96817-4505,8,21.321785000000002,-157.87,,,,35700.0,10082.0,2997.0
141796,Kapiolani Community College,Honolulu,HI,96816-4421,8,21.27148,-157.80021299999999,,,,37200.0,10458.0,5235.0
141802,Kauai Community College,Lihue,HI,96766-9500,8,21.968887,-159.395883,,,,39000.0,12774.0,1045.0
141811,Leeward Community College,Pearl City,HI,96782-3366,8,21.392670000000003,-157.983771,,,,33200.0,8054.0,5274.0
141839,University of Hawaii Maui College,Kahului,HI,96732-1617,8,20.88956,-156.477252,,,,29900.0,13256.0,2694.0
141981,University of Hawaii-West Oahu,Kapolei,HI,96707-4507,8,21.35531,-158.056403,0.6806,,,38600.0,14526.0,2757.0
141990,Windward Community College,Kaneohe,HI,96744-3528,8,21.407051,-157.813307,,,,29600.0,13791.0,1489.0
142090,Boise Bible College,Boise,ID,83714-1220,7,43.658651,-116.291321,0.9,1009.0,21.0,29400.0,25973.0,134.0
142115,Boise State University,Boise,ID,83725,7,43.604284,-116.203301,0.8173,1047.0,23.0,37100.0,18298.0,16045.0
142276,Idaho State University,Pocatello,ID,83209,7,42.863832,-112.43231200000001,,,,35700.0,19526.0,8307.0
142285,University of Idaho,Moscow,ID,83844-2282,7,46.727406,-117.01416699999999,0.7589,1070.0,24.0,41900.0,20045.0,7735.0
142294,The College of Idaho,Caldwell,ID,83605-4432,7,43.652284,-116.67799199999999,0.8482,,,40000.0,38600.0,953.0
142328,Lewis-Clark State College,Lewiston,ID,83501-2698,7,46.412199,-117.024875,0.9715,937.0,21.0,34600.0,15475.0,3038.0
142443,North Idaho College,Coeur d'Alene,ID,83814-2199,7,47.67569,-116.798905,,,,31000.0,11074.0,4107.0
142461,Northwest Nazarene University,Nampa,ID,83686-5897,7,43.562411,-116.56578300000001,0.9528,1113.0,24.0,39600.0,37621.0,1244.0
142522,Brigham Young University-Idaho,Rexburg,ID,83460-1690,7,43.818408000000005,-111.782431,0.9583,1036.0,23.0,42700.0,12011.0,32042.0
142559,College of Southern Idaho,Twin Falls,ID,83301,7,42.579837,-114.473901,,,,29300.0,11302.0,4047.0
142887,American Academy of Art,Chicago,IL,60604-4302,3,41.87742,-87.624788,,,,31100.0,37439.0,297.0
143048,School of the Art Institute of Chicago,Chicago,IL,60603,3,41.88105,-87.62575799999999,0.5932,1127.0,25.0,33500.0,59698.0,2848.0
143084,Augustana College,Rock Island,IL,61201-2296,3,41.502365000000005,-90.55057,0.5162,,,52000.0,50400.0,2522.0
143118,Aurora University,Aurora,IL,60506-4892,3,41.753631,-88.349023,0.8772,1005.0,22.0,42700.0,32930.0,3784.0
143279,Black Hawk College,Moline,IL,61265-5899,3,41.477283,-90.447799,,,,29000.0,11098.0,3678.0
143288,Blackburn College,Carlinville,IL,62626,3,39.287896,-89.87024100000001,0.5385,968.0,21.0,37400.0,27769.0,587.0
143297,Blessing Rieman College of Nursing and Health Sciences,Quincy,IL,62305-7005,3,39.936549,-91.399045,,,,48200.0,,255.0
143358,Bradley University,Peoria,IL,61625-0001,3,40.696896,-89.616786,0.6981,1141.0,25.0,53600.0,44130.0,4464.0
143613,Carl Sandburg College,Galesburg,IL,61401,3,40.98128,-90.408203,,,,29700.0,10168.0,1475.0
144005,Chicago State University,Chicago,IL,60628-1598,3,41.718446,-87.60938399999999,0.5788,883.0,18.0,33800.0,21509.0,2352.0
144050,University of Chicago,Chicago,IL,60637,3,41.787994,-87.59953900000001,0.0794,1508.0,34.0,68100.0,70100.0,5978.0
144184,City Colleges of Chicago-Harry S Truman College,Chicago,IL,60640-6063,3,41.964502,-87.65910699999999,,,,28100.0,10651.0,3265.0
144209,City Colleges of Chicago-Harold Washington College,Chicago,IL,60601-2449,3,41.886067,-87.62659599999999,,,,26100.0,9579.0,7210.0
144218,City Colleges of Chicago-Wilbur Wright College,Chicago,IL,60634-1500,3,41.958774,-87.787868,,,,32800.0,8683.0,6761.0
144281,Columbia College Chicago,Chicago,IL,60605-1996,3,41.874261,-87.624667,0.8806,,,34400.0,40503.0,7739.0
144351,Concordia University-Chicago,River Forest,IL,60305-1499,3,41.898696,-87.80948199999999,0.4969,1011.0,22.0,39700.0,39036.0,1467.0
144467,Le Cordon Bleu College of Culinary Arts-Chicago,Chicago,IL,60610,3,41.898037,-87.638363,,,,35000.0,,418.0
144564,Danville Area Community College,Danville,IL,61832-5118,3,40.127539,-87.587884,,,,28000.0,8994.0,1802.0
144740,DePaul University,Chicago,IL,60604,3,41.877618,-87.62724,0.6975,,,53300.0,50997.0,15151.0
144865,College of DuPage,Glen Ellyn,IL,60137-6599,3,41.841577,-88.071635,,,,36600.0,12311.0,14398.0
144883,East-West University,Chicago,IL,60605,3,41.871309000000004,-87.62479300000001,,,,25700.0,26190.0,514.0
144892,Eastern Illinois University,Charleston,IL,61920,3,39.479843,-88.175658,0.4688,990.0,21.0,42200.0,22957.0,5750.0
144962,Elmhurst College,Elmhurst,IL,60126-3096,3,41.897164000000004,-87.945369,0.7189,1068.0,23.0,48300.0,43482.0,2778.0
144971,Eureka College,Eureka,IL,61530,3,40.71482,-89.269624,0.6453,1030.0,22.0,36000.0,30677.0,666.0
145239,Fox College,Bedford Park,IL,60638,3,41.771488,-87.74472800000001,0.7457,,,33500.0,21225.0,374.0
145336,Governors State University,University Park,IL,60484,3,41.449103,-87.716441,0.413,910.0,19.0,40800.0,24159.0,3469.0
145372,Greenville University,Greenville,IL,62246,3,38.894162,-89.40824,0.5782,999.0,22.0,36800.0,35756.0,956.0
145460,Harrington College of Design,Chicago,IL,60605,3,41.874113,-87.624678,,,,36300.0,,7.0
145497,Hebrew Theological College,Skokie,IL,60077,3,42.010103,-87.760874,0.915,1076.0,24.0,21100.0,,199.0
145558,Rosalind Franklin University of Medicine and Science,North Chicago,IL,60064-3095,3,42.300069,-87.85963199999999,,,,132300.0,,
145600,University of Illinois at Chicago,Chicago,IL,60607,3,41.871837,-87.650503,0.7359,1105.0,24.0,54300.0,25131.0,17804.0
145619,Benedictine University,Lisle,IL,60532-0900,3,41.777569,-88.097307,,,,49000.0,38036.0,3132.0
145637,University of Illinois at Urbana-Champaign,Champaign,IL,61820-5711,3,40.104718,-88.229114,0.6007,1320.0,29.0,61500.0,29764.0,32752.0
145646,Illinois Wesleyan University,Bloomington,IL,61702-2900,3,40.489901,-88.992014,0.5821,1229.0,27.0,59100.0,54580.0,1763.0
145682,Illinois Central College,East Peoria,IL,61635-0001,3,40.707235,-89.52485,,,,30500.0,14098.0,7122.0
145691,Illinois College,Jacksonville,IL,62650-2299,3,39.7313,-90.24617099999999,0.5403,,,42800.0,41869.0,952.0
145707,Olney Central College,Olney,IL,62450,3,38.735913000000004,-88.099589,,,,29500.0,5695.0,715.0
145725,Illinois Institute of Technology,Chicago,IL,60616,3,41.8313,-87.627321,0.5710000000000001,1275.0,29.0,69100.0,57277.0,2859.0
145770,Argosy University-Chicago,Chicago,IL,60601,3,41.886006,-87.623772,,,,41400.0,23365.0,169.0
145813,Illinois State University,Normal,IL,61790-1000,3,40.509403000000006,-88.99005799999999,0.8888,1090.0,24.0,47100.0,27421.0,18571.0
145831,Illinois Valley Community College,Oglesby,IL,61348-9692,3,41.30744,-89.100887,,,,30700.0,11351.0,2521.0
146010,Sanford-Brown College-Chicago,Chicago,IL,60602-3300,3,41.882448,-87.627512,,,,27400.0,,30.0
146205,John A Logan College,Carterville,IL,62918-2500,3,37.747453,-89.09021,,,,25700.0,9046.0,3086.0
146278,John Wood Community College,Quincy,IL,62305-8736,3,39.913740999999995,-91.335828,,,,29900.0,12534.0,1562.0
146296,Joliet Junior College,Joliet,IL,60431-8938,3,41.500535,-88.18098499999999,,,,31200.0,7510.0,11642.0
146339,Judson University,Elgin,IL,60123-1498,3,42.061754,-88.291336,0.7485,1020.0,22.0,42800.0,40073.0,1105.0
146393,Kendall College,Chicago,IL,60642,3,41.898756,-87.64893599999999,0.8377,,,39300.0,34797.0,1139.0
146418,Kishwaukee College,Malta,IL,60150-9699,3,41.938234,-88.880524,,,,34100.0,11921.0,2876.0
146427,Knox College,Galesburg,IL,61401-9999,3,40.943064,-90.373165,0.6521,,,39700.0,52586.0,1333.0
146481,Lake Forest College,Lake Forest,IL,60045-2399,3,42.249573999999996,-87.827454,0.5694,,,50900.0,54777.0,1514.0
146533,Lakeview College of Nursing,Danville,IL,61832,3,40.13855,-87.644379,,,,61200.0,,274.0
146603,Lewis and Clark Community College,Godfrey,IL,62035,3,38.951624,-90.194405,,,,27400.0,8790.0,3681.0
146612,Lewis University,Romeoville,IL,60446-2200,3,41.605432,-88.079032,0.5919,1090.0,24.0,48800.0,37393.0,4433.0
146667,Lincoln Christian University,Lincoln,IL,62656-2111,3,40.148924,-89.346721,0.5288,1007.0,22.0,30900.0,25542.0,446.0
146676,Lincoln College,Lincoln,IL,62656,3,40.155442,-89.36153,0.6202,823.0,17.0,30900.0,29402.0,995.0
146685,Lincoln Land Community College,Springfield,IL,62794-9256,3,39.721211,-89.611249,,,,29600.0,11663.0,4713.0
146719,Loyola University Chicago,Chicago,IL,60660,3,42.000765,-87.65687199999999,0.7257,1195.0,27.0,54100.0,54324.0,10906.0
146755,Trinity College of Nursing & Health Sciences,Rock Island,IL,61201-5317,3,41.484924,-90.568862,,,,44500.0,,223.0
146816,MacCormac College,Chicago,IL,60602-4405,3,41.881898,-87.626657,,,,29700.0,22279.0,168.0
146825,MacMurray College,Jacksonville,IL,62650-2590,3,39.730918,-90.223986,0.562,946.0,20.0,36200.0,33625.0,551.0
147004,McHenry County College,Crystal Lake,IL,60012-2761,3,42.259111,-88.36895600000001,,,,32900.0,10816.0,4419.0
147013,McKendree University,Lebanon,IL,62254-1291,3,38.608154,-89.816822,0.6816,1025.0,22.0,45800.0,40195.0,2220.0
147129,Methodist College,Peoria,IL,61615,3,40.7804,-89.682864,0.5,990.0,21.0,,37703.0,672.0
147165,Midstate College,Peoria,IL,61614-3595,3,40.761916,-89.59885899999999,0.75,,,25600.0,26096.0,402.0
147244,Millikin University,Decatur,IL,62522-2084,3,39.842612,-88.976298,0.638,1047.0,23.0,42900.0,43149.0,1916.0
147341,Monmouth College,Monmouth,IL,61462-1998,3,40.914823999999996,-90.63731,0.5206,1045.0,23.0,41500.0,45005.0,1133.0
147369,Moody Bible Institute,Chicago,IL,60610-3284,3,41.897822,-87.633459,0.6176,,,,26029.0,2826.0
147378,Moraine Valley Community College,Palos Hills,IL,60465-0937,3,41.694613000000004,-87.836915,,,,33700.0,10329.0,11558.0
147396,Morrison Institute of Technology,Morrison,IL,61270-2959,3,41.7971,-89.965963,,,,51400.0,24212.0,88.0
147411,Morton College,Cicero,IL,60804-4398,3,41.824303,-87.76230600000001,,,,33300.0,9265.0,3371.0
147536,National Louis University,Chicago,IL,60603,3,41.880093,-87.62469899999999,0.7638,,,44600.0,22222.0,1403.0
147590,National University of Health Sciences,Lombard,IL,60148-4583,3,41.861697,-88.013171,,,,34600.0,,77.0
147660,North Central College,Naperville,IL,60540,3,41.77576,-88.14279,0.5936,1123.0,25.0,47800.0,46799.0,2626.0
147679,North Park University,Chicago,IL,60625-4895,3,41.975268,-87.709948,0.9418,993.0,21.0,43700.0,34232.0,2119.0
147703,Northern Illinois University,Dekalb,IL,60115-2828,3,41.933869,-88.766428,0.5184,1030.0,22.0,45500.0,28725.0,14036.0
147749,Northwestern College-Chicago Campus,Chicago,IL,60630,3,41.968664000000004,-87.759615,0.5551,,,29600.0,29811.0,262.0
147767,Northwestern University,Evanston,IL,60208,3,42.050356,-87.679858,0.1066,1470.0,33.0,69000.0,67887.0,8563.0
147776,Northeastern Illinois University,Chicago,IL,60625-4699,3,41.980399,-87.718983,0.7101,870.0,18.0,37900.0,23097.0,7570.0
147800,Oakton Community College,Des Plaines,IL,60016-1268,3,42.061893,-87.88064399999999,,,,38500.0,10502.0,8800.0
147828,Olivet Nazarene University,Bourbonnais,IL,60914-2271,3,41.155237,-87.875165,0.777,1099.0,24.0,40400.0,43883.0,3348.0
147916,Parkland College,Champaign,IL,61821-1899,3,40.131963,-88.290359,,,,30900.0,12147.0,6019.0
148131,Quincy University,Quincy,IL,62301-2699,3,39.938897999999995,-91.385975,0.6623,991.0,21.0,39500.0,39686.0,1081.0
148177,The Illinois Institute of Art-Chicago,Chicago,IL,60654-1593,3,41.888723,-87.637632,,,,34100.0,26161.0,970.0
148335,Robert Morris University Illinois,Chicago,IL,60605,3,41.876278000000006,-87.62706800000001,0.2313,,,32300.0,35116.0,2345.0
148380,Rock Valley College,Rockford,IL,61114-5699,3,42.306174,-88.993544,,,,30300.0,11207.0,6516.0
148399,Madison Media Institute-Rockford Career College,Rockford,IL,61108,3,42.255722999999996,-89.02722,,,,31600.0,17598.0,596.0
148405,Rockford University,Rockford,IL,61108-2311,3,42.270639,-89.019536,0.5443,1011.0,22.0,45200.0,39242.0,1037.0
148487,Roosevelt University,Chicago,IL,60605-1394,3,41.876055,-87.62495200000001,0.7329,1012.0,22.0,43600.0,43029.0,2710.0
148496,Dominican University,River Forest,IL,60305,3,41.902678,-87.823003,0.6373,1050.0,23.0,47100.0,38893.0,2288.0
148511,Rush University,Chicago,IL,60612,3,41.874742,-87.668581,,,,85900.0,,122.0
148575,Saint Francis Medical Center College of Nursing,Peoria,IL,61603-3783,3,40.701240999999996,-89.590322,,,,55400.0,,384.0
148584,University of St Francis,Joliet,IL,60435-6188,3,41.532225,-88.096057,0.4923,1068.0,23.0,53100.0,39175.0,1606.0
148593,St. John's College-Department of Nursing,Springfield,IL,62702,3,39.807602,-89.64532,,,,,,136.0
148627,Saint Xavier University,Chicago,IL,60655,3,41.707198999999996,-87.714749,0.7525,1009.0,22.0,48200.0,38260.0,2931.0
148654,University of Illinois at Springfield,Springfield,IL,62703-5407,3,39.729524,-89.616796,0.653,1067.0,23.0,44600.0,23469.0,2877.0
148821,Shawnee Community College,Ullin,IL,62992,3,37.270198,-89.03352,,,,25100.0,17140.0,1147.0
148849,Shimer College,Chicago,IL,60616,3,41.83217,-87.62713000000001,1.0,,,,47683.0,73.0
148876,Saint Augustine College,Chicago,IL,60640-3593,3,41.972414,-87.662806,,,,26300.0,14998.0,1350.0
148937,Southeastern Illinois College,Harrisburg,IL,62946,3,37.751740000000005,-88.436631,,,,28200.0,12793.0,721.0
149028,Saint Anthony College of Nursing,Rockford,IL,61114,3,42.310147,-88.991968,1.0,,,60600.0,,228.0
149222,Southern Illinois University-Carbondale,Carbondale,IL,62901-4512,3,37.714193,-89.21727299999999,0.7665,1029.0,22.0,42900.0,26868.0,12056.0
149231,Southern Illinois University-Edwardsville,Edwardsville,IL,62026-1259,3,38.793949,-89.99777900000001,0.893,1068.0,23.0,43000.0,21538.0,11652.0
149310,Taylor Business Institute,Chicago,IL,60601,3,41.885452,-87.62671,,,,22500.0,23621.0,92.0
149329,Telshe Yeshiva-Chicago,Chicago,IL,60625,3,41.975536,-87.71755,0.9231,,,,16300.0,70.0
149365,South Suburban College,South Holland,IL,60473-1200,3,41.606427000000004,-87.619123,,,,26200.0,10506.0,3372.0
149505,Trinity Christian College,Palos Heights,IL,60463-0929,3,41.667687,-87.783973,0.7002,1081.0,24.0,42200.0,39155.0,1085.0
149514,Trinity International University-Illinois,Deerfield,IL,60015-1283,3,42.197945000000004,-87.880851,0.5978,1079.0,24.0,41100.0,41416.0,776.0
149532,Triton College,River Grove,IL,60171-1995,3,41.916082,-87.84105600000001,,,,34300.0,9831.0,9759.0
149639,VanderCook College of Music,Chicago,IL,60616-3731,3,41.836833,-87.629138,0.902,1050.0,23.0,,37471.0,103.0
149727,Waubonsee Community College,Sugar Grove,IL,60554-9454,3,41.795955,-88.459925,,,,32500.0,9165.0,7556.0
149763,Resurrection University,Chicago,IL,60622,3,41.90748,-87.685291,,,,71100.0,,571.0
149772,Western Illinois University,Macomb,IL,61455,3,40.468086,-90.686899,0.5945,970.0,21.0,43200.0,25280.0,8543.0
149781,Wheaton College,Wheaton,IL,60187-5593,3,41.870176,-88.099643,0.7865,1306.0,30.0,48400.0,45154.0,2432.0
150048,Ancilla College,Donaldson,IN,46513-0001,3,41.337958,-86.445263,,,,30700.0,26750.0,554.0
150066,Anderson University,Anderson,IN,46012-3495,3,40.112768,-85.664315,0.6642,1019.0,22.0,37200.0,40443.0,1702.0
150136,Ball State University,Muncie,IN,47306,3,40.203431,-85.40904300000001,0.6225,1057.0,22.0,41100.0,23157.0,16260.0
150145,Bethel College-Indiana,Mishawaka,IN,46545-5591,3,41.678399,-86.194686,0.9777,1039.0,23.0,37800.0,37918.0,1339.0
150163,Butler University,Indianapolis,IN,46208,3,39.8374,-86.172167,0.7271,1215.0,28.0,56600.0,52071.0,4235.0
150172,Calumet College of Saint Joseph,Whiting,IN,46394,3,41.671008,-87.494123,,,,42000.0,22839.0,744.0
150400,DePauw University,Greencastle,IN,46135-1772,3,39.640904,-86.860363,0.6533,1187.0,27.0,54000.0,58478.0,2186.0
150455,Earlham College,Richmond,IN,47374-4095,3,39.823431,-84.915037,0.5763,,,35000.0,56510.0,994.0
150534,University of Evansville,Evansville,IN,47722,3,37.971548999999996,-87.531644,0.7089,1147.0,26.0,41800.0,45967.0,2064.0
150604,Franklin College,Franklin,IN,46131-2623,3,39.478297999999995,-86.04718199999999,0.7809,991.0,22.0,44100.0,40901.0,975.0
150668,Goshen College,Goshen,IN,46526-4794,3,41.563582000000004,-85.827795,0.6245,1074.0,26.0,37700.0,41312.0,793.0
150677,Grace College and Theological Seminary,Winona Lake,IN,46590-1274,3,41.22595,-85.814228,0.7873,1076.0,24.0,34900.0,32113.0,1579.0
150756,Hanover College,Hanover,IN,47243,3,38.715641999999995,-85.460051,0.5733,1093.0,25.0,46400.0,47421.0,1083.0
150774,Holy Cross College,Notre Dame,IN,46556-0308,3,41.698996,-86.253822,0.9101,1053.0,24.0,39900.0,39437.0,606.0
150941,Huntington University,Huntington,IN,46750,3,40.898152,-85.49731700000001,0.8921,1019.0,22.0,36200.0,36227.0,924.0
151102,Indiana University-Purdue University-Fort Wayne,Fort Wayne,IN,46805-1499,3,41.117278000000006,-85.108962,0.9326,976.0,21.0,36500.0,18025.0,8302.0
151111,Indiana University-Purdue University-Indianapolis,Indianapolis,IN,46202-5143,3,39.772948,-86.172217,0.7397,1025.0,23.0,42500.0,20451.0,21001.0
151166,Harrison College-Indianapolis,Indianapolis,IN,46204-2611,3,39.767142,-86.147609,1.0,,,24700.0,26414.0,2721.0
151263,University of Indianapolis,Indianapolis,IN,46227-3697,3,39.709571000000004,-86.133969,0.8617,1033.0,23.0,40600.0,39236.0,4242.0
151290,Indiana Institute of Technology,Fort Wayne,IN,46803-1228,3,41.078365000000005,-85.116479,0.6917,944.0,21.0,42700.0,37135.0,7179.0
151306,University of Southern Indiana,Evansville,IN,47712,3,37.962374,-87.677214,0.9189,1005.0,22.0,37000.0,17692.0,7764.0
151324,Indiana State University,Terre Haute,IN,47809,3,39.469073,-87.40784599999999,0.8588,907.0,19.0,39000.0,20140.0,10601.0
151333,Indiana University-Kokomo,Kokomo,IN,46904-9003,3,40.460062,-86.132048,0.6913,938.0,21.0,36200.0,16331.0,2771.0
151342,Indiana University-South Bend,South Bend,IN,46634-7111,3,41.665324,-86.221991,0.7703,952.0,21.0,34900.0,16584.0,4981.0
151351,Indiana University-Bloomington,Bloomington,IN,47405-7000,3,39.166090000000004,-86.52655899999999,0.7872,1200.0,27.0,47700.0,24432.0,32924.0
151360,Indiana University-Northwest,Gary,IN,46408-1197,3,41.557324,-87.337249,0.758,939.0,21.0,36300.0,14022.0,3727.0
151379,Indiana University-Southeast,New Albany,IN,47150,3,38.345191,-85.819985,0.8401,943.0,20.0,37900.0,16760.0,4964.0
151388,Indiana University-East,Richmond,IN,47374-1289,3,39.868707,-84.881923,0.6028,949.0,21.0,31500.0,15715.0,3082.0
151458,International Business College-Fort Wayne,Fort Wayne,IN,46804-7145,3,41.035006,-85.257786,0.7892,,,27300.0,22367.0,314.0
151467,International Business College-Indianapolis,Indianapolis,IN,46256-3954,3,39.885628000000004,-86.041648,0.7736,,,27300.0,22420.0,296.0
151616,Brown Mackie College-Merrillville,Merrillville,IN,46410,3,41.473702,-87.326134,,,,29400.0,,178.0
151777,Manchester University,North Manchester,IN,46962,3,41.010549,-85.76264300000001,0.7055,1019.0,24.0,40700.0,41953.0,1253.0
151786,Marian University,Indianapolis,IN,46222-1997,3,39.813233000000004,-86.20264300000001,0.5958,1025.0,22.0,43300.0,43723.0,2019.0
151801,Indiana Wesleyan University-Marion,Marion,IN,46953-4974,3,40.517936999999996,-85.667503,0.7388,1077.0,24.0,49900.0,36050.0,2679.0
151810,Martin University,Indianapolis,IN,46218-0567,3,39.798144,-86.103953,,,,24700.0,24364.0,279.0
151962,Mid-America College of Funeral Service,Jeffersonville,IN,47130,3,38.312090000000005,-85.74469599999999,,,,27100.0,22691.0,78.0
152080,University of Notre Dame,Notre Dame,IN,46556,3,41.703058,-86.238959,0.1873,1474.0,34.0,78400.0,64775.0,8496.0
152099,Oakland City University,Oakland City,IN,47660-1099,3,38.340891,-87.35144,0.3312,978.0,21.0,33600.0,36221.0,496.0
152248,Purdue University-Calumet Campus,Hammond,IN,46323-2094,3,41.584326000000004,-87.474034,0.5868,978.0,21.0,38200.0,16667.0,7100.0
152266,Purdue University-North Central Campus,Westville,IN,46391-9542,3,41.582527,-86.893713,0.4992,968.0,21.0,39000.0,14017.0,2519.0
152318,Rose-Hulman Institute of Technology,Terre Haute,IN,47803-3920,3,39.483602000000005,-87.32674899999999,0.6107,1318.0,30.0,80900.0,60801.0,2186.0
152336,University of Saint Francis-Fort Wayne,Fort Wayne,IN,46808-3994,3,41.087205,-85.177246,0.9672,1001.0,22.0,40400.0,35524.0,1758.0
152363,Saint Josephs College,Rensselaer,IN,47978-0870,3,40.921347999999995,-87.160278,0.7683,999.0,23.0,41800.0,39362.0,947.0
152381,Saint Mary-of-the-Woods College,Saint Mary of the Woods,IN,47876-1099,3,39.508546,-87.463791,0.7302,928.0,20.0,32300.0,43341.0,569.0
152390,Saint Mary's College,Notre Dame,IN,46556,3,41.707274,-86.256947,0.8165,1117.0,25.0,46200.0,50909.0,1576.0
152530,Taylor University,Upland,IN,46989-1001,3,40.456246,-85.497034,0.7961,1138.0,26.0,38000.0,41915.0,1845.0
152567,Trine University,Angola,IN,46703-1764,3,41.632502,-85.008009,0.7671,1079.0,24.0,43300.0,46575.0,1767.0
152600,Valparaiso University,Valparaiso,IN,46383,3,41.462239000000004,-87.040172,0.8291,1153.0,26.0,48500.0,47855.0,3236.0
152637,Vincennes University,Vincennes,IN,47591,3,38.687765999999996,-87.51993900000001,,,,32800.0,16652.0,7563.0
152673,Wabash College,Crawfordsville,IN,47933-0352,3,40.037588,-86.906,0.6262,1145.0,26.0,56300.0,51440.0,841.0
152798,Allen College,Waterloo,IA,50703-1999,4,42.530084,-92.340148,0.0,,,50800.0,,358.0
152992,Briar Cliff University,Sioux City,IA,51104,4,42.526443,-96.428444,,,,41900.0,39876.0,972.0
153001,Buena Vista University,Storm Lake,IA,50588,4,42.642255,-95.208529,0.6369,1046.0,23.0,40000.0,43514.0,1785.0
153108,Central College,Pella,IA,50219,4,41.401539,-92.92219899999999,0.7343,1091.0,24.0,44700.0,47878.0,1184.0
153126,Clarke University,Dubuque,IA,52001-3198,4,42.509475,-90.690487,0.6493,1043.0,23.0,41300.0,42268.0,788.0
153144,Coe College,Cedar Rapids,IA,52402-5092,4,41.988263,-91.658192,0.4995,1145.0,25.0,46200.0,50982.0,1323.0
153162,Cornell College,Mount Vernon,IA,52314-1098,4,41.924554,-91.423741,0.7094,1172.0,26.0,43000.0,52159.0,974.0
153214,Des Moines Area Community College,Ankeny,IA,50023-3993,4,41.707347999999996,-93.611597,,,,34300.0,14262.0,12818.0
153241,Divine Word College,Epworth,IA,52045,4,42.441721,-90.934578,1.0,,,,19121.0,61.0
153250,Dordt College,Sioux Center,IA,51250-1697,4,43.082527,-96.166562,0.7203,1113.0,25.0,41700.0,40997.0,1376.0
153269,Drake University,Des Moines,IA,50311-4505,4,41.601290000000006,-93.652163,0.6895,1241.0,28.0,58300.0,47759.0,3196.0
153278,University of Dubuque,Dubuque,IA,52001,4,42.49726,-90.693428,0.7569,923.0,20.0,39200.0,38561.0,1924.0
153296,Ellsworth Community College,Iowa Falls,IA,50126,4,42.527524,-93.265853,,,,33400.0,14635.0,659.0
153311,Eastern Iowa Community College District,Davenport,IA,52801-1221,4,41.52047,-90.57779599999999,,,,29400.0,14055.0,3361.0
153320,Faith Baptist Bible College and Theological Seminary,Ankeny,IA,50023-2152,4,41.737082,-93.624422,0.6617,1051.0,23.0,35400.0,27778.0,207.0
153366,Graceland University-Lamoni,Lamoni,IA,50140,4,40.615966,-93.92489300000001,0.484,971.0,21.0,36200.0,38444.0,1305.0
153375,Grand View University,Des Moines,IA,50316,4,41.620813,-93.604352,0.9661,970.0,21.0,43200.0,34943.0,1876.0
153384,Grinnell College,Grinnell,IA,50112-1690,4,41.747952000000005,-92.722094,0.2019,1410.0,32.0,49100.0,61098.0,1657.0
153409,Kaplan University-Mason City Campus,Mason City,IA,50401,4,43.149615000000004,-93.238946,,,,33900.0,25753.0,179.0
153418,Kaplan University-Cedar Rapids Campus,Cedar Rapids,IA,52404,4,41.949597,-91.71350699999999,,,,33900.0,23404.0,424.0
153445,Hawkeye Community College,Waterloo,IA,50701,4,42.430003,-92.33063299999999,,,,36100.0,14247.0,3647.0
153472,Indian Hills Community College,Ottumwa,IA,52501,4,41.045105,-92.394736,,,,32100.0,12624.0,2578.0
153524,Iowa Central Community College,Fort Dodge,IA,50501,4,42.490066999999996,-94.20299,,,,36500.0,13094.0,3437.0
153533,Iowa Lakes Community College,Estherville,IA,51334-2295,4,43.397996,-94.817142,,,,34000.0,13708.0,1200.0
153603,Iowa State University,Ames,IA,50011-2103,4,42.026212,-93.648504,0.8749,1144.0,25.0,50700.0,19182.0,30224.0
153621,Iowa Wesleyan University,Mount Pleasant,IA,52641,4,40.973791,-91.552459,0.5089,917.0,19.0,39500.0,40996.0,520.0
153630,Iowa Western Community College,Council Bluffs,IA,51503-1057,4,41.272168,-95.797975,,,,33100.0,15352.0,4126.0
153658,University of Iowa,Iowa City,IA,52242-1316,4,41.661935,-91.536425,0.8411,1165.0,26.0,51900.0,21010.0,22990.0
153737,Kirkwood Community College,Cedar Rapids,IA,52406-2068,4,41.911268,-91.651172,,,,35800.0,14952.0,9276.0
153825,Loras College,Dubuque,IA,52004-0178,4,42.503908,-90.679023,0.9236,1051.0,23.0,44600.0,39894.0,1422.0
153834,Luther College,Decorah,IA,52101-1045,4,43.312304,-91.802809,0.6763,1157.0,26.0,47400.0,51165.0,2121.0
153861,Maharishi University of Management,Fairfield,IA,52557,4,41.017781,-91.96730600000001,0.506,,,21400.0,38437.0,320.0
153922,Marshalltown Community College,Marshalltown,IA,50158,4,42.00065,-92.90941099999999,,,,31500.0,13091.0,1091.0
153977,Mercy College of Health Sciences,Des Moines,IA,50309-1239,4,41.594559000000004,-93.626238,,,,47000.0,27378.0,768.0
154004,Morningside College,Sioux City,IA,51106-1751,4,42.473890999999995,-96.359464,0.5693,1070.0,23.0,43700.0,41001.0,1313.0
154013,Mount Mercy University,Cedar Rapids,IA,52402-4797,4,42.001931,-91.650991,0.6188,990.0,21.0,45300.0,41055.0,1570.0
154022,Ashford University,San Diego,CA,92123,8,32.8273,-117.14196100000001,,,,41200.0,22961.0,35252.0
154059,North Iowa Area Community College,Mason City,IA,50401,4,43.157169,-93.13126,,,,33900.0,11992.0,1746.0
154095,University of Northern Iowa,Cedar Falls,IA,50614-0005,4,42.514922999999996,-92.459703,0.8256,1050.0,23.0,44600.0,19751.0,9943.0
154101,Northwestern College,Orange City,IA,51041,4,42.999007,-96.05877199999999,0.6553,1113.0,25.0,38400.0,41707.0,1076.0
154110,Northeast Iowa Community College,Calmar,IA,52132-0400,4,43.17523,-91.86710500000001,,,,33700.0,13134.0,2262.0
154129,Northwest Iowa Community College,Sheldon,IA,51201,4,43.184701000000004,-95.880639,,,,43100.0,14442.0,770.0
154174,Palmer College of Chiropractic,Davenport,IA,52803-5287,4,41.529021,-90.574607,,,,41200.0,31623.0,39.0
154235,Saint Ambrose University,Davenport,IA,52803-2898,4,41.54065,-90.579854,0.6358,1050.0,23.0,47300.0,41774.0,2387.0
154262,St Luke's College,Sioux City,IA,51104-0263,4,42.520081,-96.404724,0.5,,,44400.0,25166.0,260.0
154350,Simpson College,Indianola,IA,50125,4,41.365503000000004,-93.56347099999999,0.8545,1103.0,24.0,47500.0,46428.0,1525.0
154378,Southeastern Community College,West Burlington,IA,52655-0180,4,40.814496000000005,-91.171881,,,,28500.0,10789.0,1762.0
154396,Southwestern Community College,Creston,IA,50801,4,41.073437,-94.38090600000001,,,,31700.0,12712.0,894.0
154493,Upper Iowa University,Fayette,IA,52142-1857,4,42.838283000000004,-91.799543,0.5555,968.0,21.0,42900.0,39962.0,3859.0
154518,Waldorf University,Forest City,IA,50436-1713,4,43.262923,-93.64171400000001,0.6671,960.0,21.0,37800.0,32156.0,1889.0
154527,Wartburg College,Waverly,IA,50677-0903,4,42.7277,-92.483387,0.6825,1084.0,24.0,45400.0,48469.0,1449.0
154590,William Penn University,Oskaloosa,IA,52577,4,41.310111,-92.647095,0.5867,889.0,19.0,42100.0,35236.0,1286.0
154642,Allen County Community College,Iola,KS,66749,4,37.938038,-95.396377,,,,32200.0,10877.0,2379.0
154688,Baker University,Baldwin City,KS,66006-0065,4,38.777278,-95.188231,0.7775,1053.0,23.0,51300.0,41824.0,1581.0
154697,Barton County Community College,Great Bend,KS,67530,4,38.403529,-98.73164799999999,,,,31300.0,14392.0,2146.0
154712,Benedictine College,Atchison,KS,66002-1499,4,39.572646,-95.111473,0.6924,1116.0,25.0,40100.0,40871.0,1936.0
154721,Bethany College,Lindsborg,KS,67456-1897,4,38.580597999999995,-97.67367,0.638,960.0,21.0,40200.0,40631.0,655.0
154749,Bethel College-North Newton,North Newton,KS,67117-1716,4,38.075169,-97.34325600000001,0.5597,,,40800.0,38084.0,459.0
154767,Brown Mackie College-Kansas City,Lenexa,KS,66215,4,38.952884999999995,-94.73458000000001,,,,24700.0,,171.0
154776,Brown Mackie College-Salina,Salina,KS,67401-7307,4,38.805240000000005,-97.613913,,,,24700.0,,149.0
154794,Bryan University,Topeka,KS,66604,4,39.038738,-95.74372,,,,22100.0,24871.0,107.0
154800,Butler Community College,El Dorado,KS,67042-3280,4,37.806699,-96.882987,,,,32800.0,12437.0,7419.0
154855,Central Christian College of Kansas,McPherson,KS,67460-5740,4,38.357978,-97.66859699999999,0.5364,921.0,20.0,31700.0,25417.0,827.0
154925,Coffeyville Community College,Coffeyville,KS,67337-5064,4,37.033814,-95.621374,,,,30400.0,9646.0,984.0
154934,Colby Community College,Colby,KS,67701,4,39.377601,-101.05274399999999,,,,32500.0,12604.0,791.0
154952,Cowley County Community College,Arkansas City,KS,67005,4,37.061668,-97.043075,,,,32400.0,12717.0,2792.0
154998,Dodge City Community College,Dodge City,KS,67801-2399,4,37.776891,-100.037481,,,,34000.0,10806.0,1042.0
155007,Donnelly College,Kansas City,KS,66102,4,39.112256,-94.650677,,,,25400.0,17146.0,318.0
155025,Emporia State University,Emporia,KS,66801-5415,4,38.414784000000004,-96.17902099999999,0.8743,1029.0,22.0,37100.0,17347.0,3578.0
155061,Fort Hays State University,Hays,KS,67601-4099,4,38.872156,-99.34250300000001,0.9073,,,38200.0,16251.0,11698.0
155070,Barclay College,Haviland,KS,67059-0288,4,37.62012,-99.105351,0.6667,,,33900.0,26748.0,250.0
155089,Friends University,Wichita,KS,67213,4,37.678459000000004,-97.367048,0.5501,1002.0,22.0,41800.0,34046.0,1164.0
155104,Garden City Community College,Garden City,KS,67846-6333,4,37.970151,-100.84808199999999,,,,31500.0,11350.0,1462.0
155140,Haskell Indian Nations University,Lawrence,KS,66046-4800,4,38.938834,-95.232879,0.8646,872.0,18.0,24900.0,9153.0,820.0
155177,Hesston College,Hesston,KS,67062-2093,4,38.134558,-97.433883,,,,41000.0,37348.0,397.0
155195,Hutchinson Community College,Hutchinson,KS,67501,4,38.068034999999995,-97.92135,,,,33800.0,11832.0,3831.0
155210,Johnson County Community College,Overland Park,KS,66210-1299,4,38.924125,-94.72779799999999,,,,36600.0,11612.0,11560.0
155308,Kansas Christian College,Overland Park,KS,66204-1975,4,38.994848,-94.666878,,,,,11617.0,99.0
155317,University of Kansas,Lawrence,KS,66045,4,38.958549,-95.247567,0.9301,1185.0,26.0,48800.0,23687.0,18845.0
155335,Newman University,Wichita,KS,67213-2097,4,37.672643,-97.37768,0.5778,1079.0,24.0,44000.0,33632.0,1095.0
155399,Kansas State University,Manhattan,KS,66506,4,39.188648,-96.58107700000001,0.9407,,,45600.0,21989.0,19151.0
155414,Kansas Wesleyan University,Salina,KS,67401-6196,4,38.813795,-97.607973,0.5466,1003.0,22.0,40300.0,39742.0,678.0
155450,Labette Community College,Parsons,KS,67357-4201,4,37.339062,-95.255368,,,,33800.0,11431.0,1495.0
155496,Manhattan Christian College,Manhattan,KS,66502-4801,4,39.184806,-96.57938299999999,0.5951,1022.0,22.0,35500.0,26561.0,258.0
155511,McPherson College,McPherson,KS,67460-1402,4,38.371421999999995,-97.642996,0.573,1011.0,22.0,39300.0,38359.0,678.0
155520,MidAmerica Nazarene University,Olathe,KS,66062-1899,4,38.875615,-94.781635,0.5181,994.0,22.0,42900.0,37482.0,1224.0
155627,Ottawa University-Ottawa,Ottawa,KS,66067-3399,4,38.603173,-95.26418699999999,0.5007,,,41500.0,39744.0,643.0
155636,Ottawa University-Kansas City,Overland Park,KS,66211,4,38.932055,-94.63546099999999,,,,41500.0,,358.0
155681,Pittsburg State University,Pittsburg,KS,66762,4,37.392071,-94.702473,0.8734,1010.0,22.0,39400.0,17292.0,5536.0
155812,University of Saint Mary,Leavenworth,KS,66048-5082,4,39.279396000000006,-94.906743,0.4944,1005.0,22.0,38500.0,36744.0,765.0
155858,Seward County Community College,Liberal,KS,67901,4,37.059807,-100.917695,,,,32800.0,10040.0,1700.0
155900,Southwestern College,Winfield,KS,67156-6224,4,37.248608000000004,-96.97540500000001,0.9215,959.0,21.0,46400.0,39130.0,1168.0
155937,Sterling College,Sterling,KS,67579,4,38.219937,-98.20864399999999,0.3737,967.0,21.0,35700.0,33742.0,624.0
155973,Tabor College,Hillsboro,KS,67063-1799,4,38.348606,-97.200949,0.5594,971.0,21.0,40800.0,39751.0,642.0
156082,Washburn University,Topeka,KS,66621-0001,4,39.033778000000005,-95.70222199999999,,,,40300.0,17139.0,4967.0
156125,Wichita State University,Wichita,KS,67260-0124,4,37.718882,-97.292361,0.8623,1102.0,24.0,40400.0,18646.0,11030.0
156189,Alice Lloyd College,Pippa Passes,KY,41844,5,37.335087,-82.875068,0.2219,1010.0,22.0,31700.0,23289.0,605.0
156213,Asbury University,Wilmore,KY,40390-1198,5,37.862029,-84.66260600000001,0.696,1124.0,25.0,34900.0,37339.0,1498.0
156286,Bellarmine University,Louisville,KY,40205-0671,5,38.219279,-85.70499699999999,0.8245,1118.0,25.0,45700.0,51346.0,2569.0
156295,Berea College,Berea,KY,40404-2182,5,37.57202,-84.292893,0.32799999999999996,1123.0,25.0,33700.0,34980.0,1612.0
156356,Brescia University,Owensboro,KY,42301-3023,5,37.769040999999994,-87.111639,0.4677,1060.0,23.0,40100.0,30236.0,956.0
156365,Campbellsville University,Campbellsville,KY,42718-2799,5,37.343342,-85.348943,0.6979,1008.0,22.0,33700.0,34874.0,2224.0
156408,Centre College,Danville,KY,40422-1394,5,37.645709000000004,-84.779392,0.7426,1266.0,29.0,45500.0,50976.0,1422.0
156417,Clear Creek Baptist Bible College,Pineville,KY,40977-9752,5,36.725235999999995,-83.72770200000001,,,,26300.0,15407.0,117.0
156471,Galen College of Nursing-Louisville,Louisville,KY,40207,5,38.277004999999996,-85.695972,,,,42000.0,,1334.0
156541,University of the Cumberlands,Williamsburg,KY,40769,5,36.737048,-84.16164599999999,0.7087,1025.0,22.0,35100.0,36305.0,1935.0
156620,Eastern Kentucky University,Richmond,KY,40475-3102,5,37.740845,-84.30079599999999,0.8633,1049.0,23.0,36100.0,19584.0,13127.0
156745,Georgetown College,Georgetown,KY,40324-1696,5,38.207615000000004,-84.55376700000001,0.6612,1061.0,23.0,43000.0,46397.0,986.0
157021,American National University-Lexington,Lexington,KY,40509,5,38.026996000000004,-84.421099,,,,20400.0,24812.0,675.0
157030,Kentucky Mountain Bible College,Jackson,KY,41339,5,37.603443,-83.438765,0.5763,1010.0,22.0,,17145.0,81.0
157058,Kentucky State University,Frankfort,KY,40601-2355,5,38.201427,-84.855402,0.49,907.0,19.0,28700.0,17874.0,1287.0
157076,Kentucky Wesleyan College,Owensboro,KY,42301,5,37.744489,-87.119658,0.5722,992.0,21.0,36700.0,33992.0,686.0
157085,University of Kentucky,Lexington,KY,40506-0032,5,38.038911,-84.504747,0.9079,1159.0,26.0,45100.0,26143.0,22244.0
157100,Kentucky Christian University,Grayson,KY,41143-1199,5,38.338805,-82.945561,0.38799999999999996,962.0,21.0,34600.0,31003.0,471.0
157216,Lindsey Wilson College,Columbia,KY,42728-1223,5,37.101502,-85.29999699999999,,,,28800.0,36019.0,2038.0
157270,Sullivan College of Technology and Design,Louisville,KY,40218,5,38.200284,-85.688947,1.0,,,34600.0,32244.0,354.0
157289,University of Louisville,Louisville,KY,40292-0001,5,38.216862,-85.760412,0.7257,1165.0,26.0,41800.0,24768.0,15033.0
157377,Midway University,Midway,KY,40347-1120,5,38.146126,-84.67814200000001,0.6032,967.0,21.0,34500.0,36773.0,993.0
157386,Morehead State University,Morehead,KY,40351,5,38.186768,-83.434021,0.8556,1066.0,23.0,33100.0,19454.0,6647.0
157401,Murray State University,Murray,KY,42071-3318,5,36.612419,-88.323629,0.8535,1101.0,24.0,37100.0,17948.0,7655.0
157447,Northern Kentucky University,Highland Heights,KY,41099,5,39.029714,-84.463483,0.9109,1066.0,23.0,37500.0,16855.0,11033.0
157465,Daymar College-Owensboro,Owensboro,KY,42301,5,37.737809000000006,-87.14378599999999,,,,22600.0,28034.0,71.0
157535,University of Pikeville,Pikeville,KY,41501,5,37.479232,-82.521063,1.0,927.0,20.0,31100.0,34547.0,1150.0
157599,Brown Mackie College-Louisville,Louisville,KY,40219,5,38.157995,-85.695262,,,,29400.0,,405.0
157757,Spalding University,Louisville,KY,40203-2188,5,38.242407,-85.757725,0.503,972.0,21.0,45100.0,34354.0,1142.0
157793,Sullivan University,Louisville,KY,40205-3013,5,38.212824,-85.670489,,,,31400.0,32259.0,2296.0
157809,Thomas More College,Crestview Hills,KY,41017-3495,5,39.022963,-84.568923,0.8909,1027.0,22.0,49400.0,37969.0,1406.0
157818,Transylvania University,Lexington,KY,40508-1797,5,38.052983000000005,-84.493202,0.9482,,,44100.0,46566.0,960.0
157863,Union College,Barbourville,KY,40906-1499,5,36.870875,-83.88847700000001,0.6749,950.0,20.0,32100.0,35838.0,912.0
157951,Western Kentucky University,Bowling Green,KY,42101-1000,5,36.985034999999996,-86.456828,0.9402,1044.0,23.0,34700.0,18309.0,14956.0
158431,Bossier Parish Community College,Bossier City,LA,71111-6922,5,32.539551,-93.64688100000001,,,,30700.0,14137.0,5893.0
158440,Cameron College,New Orleans,LA,70119,5,29.965981,-90.08868100000001,,,,23400.0,,76.0
158477,Centenary College of Louisiana,Shreveport,LA,71134-1188,5,32.483335,-93.730834,0.6422,1121.0,25.0,44900.0,49351.0,478.0
158723,Delta School of Business and Technology,Lake Charles,LA,70601,5,30.22867,-93.214085,,,,19400.0,22460.0,138.0
158802,Dillard University,New Orleans,LA,70122,5,29.996586999999998,-90.06464,0.39399999999999996,931.0,20.0,35400.0,29900.0,1261.0
159009,Grambling State University,Grambling,LA,71245,5,32.523796999999995,-92.713245,0.4514,874.0,18.0,28100.0,24632.0,3882.0
159197,ITI Technical College,Baton Rouge,LA,70817,5,30.369764,-91.030485,,,,51300.0,24133.0,593.0
159373,Louisiana State University Health Sciences Center-New Orleans,New Orleans,LA,70112-2223,5,29.957271999999996,-90.083145,,,,68800.0,,873.0
159382,Louisiana State University-Alexandria,Alexandria,LA,71302-9121,5,31.178615999999998,-92.41440899999999,0.3332,969.0,21.0,33700.0,13520.0,2579.0
159391,Louisiana State University and Agricultural & Mechanical College,Baton Rouge,LA,70803-2750,5,30.414986,-91.178921,0.7639,1162.0,26.0,50100.0,24441.0,24365.0
159407,Louisiana State University-Eunice,Eunice,LA,70535,5,30.473291999999997,-92.434523,,,,31900.0,12859.0,2397.0
159416,Louisiana State University-Shreveport,Shreveport,LA,71115-2399,5,32.428465,-93.70561,0.8857,1048.0,23.0,35700.0,17043.0,2199.0
159568,Louisiana College,Pineville,LA,71359,5,31.324528000000004,-92.425973,0.7219,970.0,21.0,42800.0,24134.0,868.0
